Station,Lat,Lon,Divisions,Year,Count,Type
Abbeyfeale,52.3873,-9.29,Limerick,2003,20,Theft
Abbeyleix,52.9127,-7.3438,Laois/Offaly,2003,41,Theft
Adare,52.5639,-8.7921,Limerick,2003,22,Theft
Aglish,52.0716,-7.8221,Waterford,2003,5,Theft
Ahascragh,53.3957,-8.3306,Galway,2003,3,Theft
Ailt an Chorrain,54.9849,-8.4386,Donegal,2003,9,Theft
An Bun Beag,55.0656,-8.2895,Donegal,2003,25,Theft
An Charraig,54.6579,-8.6331,Donegal,2003,7,Theft
An Cheathru Rua,53.2645,-9.6005,Galway,2003,10,Theft
An Clochan Liath,54.9516,-8.3613,Donegal,2003,18,Theft
An Coirean,51.8311,-10.1742,Kerry,2003,5,Theft
An Craoslach,55.1253,-7.9126,Donegal,2003,6,Theft
An Fál Carrach,55.137,-8.102,Donegal,2003,25,Theft
An Maim,53.5107,-9.5649,Galway,2003,14,Theft
An Rinn,52.0484,-7.5931,Waterford,2003,5,Theft
An Spideal,53.2454,-9.3056,Galway,2003,33,Theft
Anglesea Street,51.8958,-8.465,Cork City,2003,1452,Theft
Annascaul,52.1524,-10.0525,Kerry,2003,4,Theft
Aran Mor,53.2721,-8.9319,Galway,2003,138,Theft
Ard An Rátha,54.7645,-8.4095,Donegal,2003,12,Theft
Ardee,53.8549,-6.5411,Louth,2003,48,Theft
Ardfert,52.3235,-9.7789,Kerry,2003,21,Theft
Ardfinnan,52.3118,-7.8783,Tipperary,2003,7,Theft
Ardmore,51.951,-7.7282,Waterford,2003,6,Theft
Ardnacrusha,52.7077,-8.6131,Limerick,2003,50,Theft
Ardrahan,53.1566,-8.8065,Galway,2003,4,Theft
Arklow,52.7963,-6.1546,Wicklow,2003,216,Theft
Arles,52.891000000000005,-7.0189,Laois/Offaly,2003,19,Theft
Arva,53.9254,-7.5838,Cavan/Monaghan,2003,4,Theft
Ashbourne,53.5114,-6.397,Meath,2003,205,Theft
Ashford,53.0139,-6.1073,Wicklow,2003,93,Theft
Askeaton,52.6006,-8.9712,Limerick,2003,15,Theft
Athea,52.4599,-9.2875,Limerick,2003,5,Theft
Athenry,53.2997,-8.7497,Galway,2003,11,Theft
Athleague,53.5687,-8.2524,Roscommon/Longford,2003,8,Theft
Athlone,53.4233,-7.9447,Westmeath,2003,585,Theft
Athy,52.9902,-6.9882,Kildare,2003,201,Theft
Aughrim,52.856,-6.3268,Wicklow,2003,21,Theft
Avoca,52.8588,-6.2129,Wicklow,2003,16,Theft
Baile Atha Bui,53.6236,-6.9159,Meath,2003,32,Theft
Baile an Fheirtéaraigh,52.1659,-10.4062,Kerry,2003,2,Theft
Baile Bhuirne,51.9458,-9.1692,Cork West,2003,7,Theft
Bailieboro,53.9152,-6.9696,Cavan/Monaghan,2003,47,Theft
Balbriggan,53.6143,-6.1912,D.M.R. Northern,2003,132,Theft
Balla,53.8019,-9.1299,Mayo,2003,18,Theft
Ballaghderreen,53.8999,-8.5846,Roscommon/Longford,2003,30,Theft
Ballina,54.1129,-9.1604,Mayo,2003,153,Theft
Ballinagh,53.9311,-7.4096,Cavan/Monaghan,2003,11,Theft
Ballinamore,54.0546,-7.797000000000001,Sligo/Leitrim,2003,14,Theft
Ballinasloe,53.3284,-8.2236,Galway,2003,118,Theft
Ballincollig,51.8882,-8.5903,Cork City,2003,109,Theft
Ballindine,53.6696,-8.9577,Mayo,2003,20,Theft
Ballineen,51.7359,-8.9489,Cork West,2003,11,Theft
Ballingarry,52.4721,-8.8628,Limerick,2003,9,Theft
Ballingarry North,53.0184,-8.0305,Tipperary,2003,1,Theft
Ballingarry South,52.586000000000006,-7.541,Tipperary,2003,8,Theft
Ballinhassig,51.8041,-8.5705,Cork West,2003,16,Theft
Ballinlough,53.7408,-8.6358,Roscommon/Longford,2003,17,Theft
Ballinrobe,53.6246,-9.2262,Mayo,2003,40,Theft
Ballintra,54.5778,-8.1254,Donegal,2003,38,Theft
Ballivor,53.5327,-6.9672,Meath,2003,19,Theft
Ballon,52.7432,-6.7722,Kilkenny/Carlow,2003,14,Theft
Ballybay,54.1289,-6.9048,Cavan/Monaghan,2003,28,Theft
Ballybofey,54.7996,-7.781000000000001,Donegal,2003,85,Theft
Ballybunion,52.5113,-9.6702,Kerry,2003,47,Theft
Ballyconnell,54.119,-7.5802,Cavan/Monaghan,2003,20,Theft
Ballycotton,51.8303,-8.0131,Cork North,2003,3,Theft
Ballycroy,54.0258,-9.8259,Mayo,2003,3,Theft
Ballycullane,52.2789,-6.8392,Wexford,2003,14,Theft
Ballydehob,51.5591,-9.4608,Cork West,2003,8,Theft
Ballydesmond,52.1782,-9.231,Cork West,2003,6,Theft
Ballyduff,52.4559,-9.6631,Kerry,2003,7,Theft
Ballyfermot,53.3448,-6.358,D.M.R. Western,2003,662,Theft
Ballygar,53.5219,-8.3284,Galway,2003,10,Theft
Ballyhale,52.4683,-7.2015,Kilkenny/Carlow,2003,13,Theft
Ballyhaunis,53.763999999999996,-8.7674,Mayo,2003,32,Theft
Ballyheigue,52.3892,-9.8275,Kerry,2003,5,Theft
Ballyjamesduff,53.8631,-7.2088,Cavan/Monaghan,2003,15,Theft
Ballylanders,52.3707,-8.3455,Limerick,2003,12,Theft
Ballylinan,52.943000000000005,-7.0432,Laois/Offaly,2003,13,Theft
Ballymacarberry,52.2672,-7.7177,Waterford,2003,2,Theft
Ballymahon,53.5613,-7.7608,Roscommon/Longford,2003,11,Theft
Ballymore,53.4911,-7.6817,Westmeath,2003,5,Theft
Ballymote,54.0874,-8.5152,Sligo/Leitrim,2003,20,Theft
Ballymun,53.3945,-6.2637,D.M.R. Northern,2003,337,Theft
Ballynacargy,53.5863,-7.5349,Westmeath,2003,7,Theft
Ballyneety,52.5973,-8.5489,Limerick,2003,26,Theft
Ballynoe,52.0602,-8.0993,Cork North,2003,13,Theft
Ballyporeen,52.2702,-8.0977,Tipperary,2003,4,Theft
Ballyshannon,54.4987,-8.2048,Donegal,2003,70,Theft
Ballyvaughan,53.1162,-9.1471,Clare,2003,17,Theft
Baltimore,51.4835,-9.3723,Cork West,2003,6,Theft
Baltinglass,52.93899999999999,-6.7098,Wicklow,2003,77,Theft
Banagher,53.1905,-7.9859,Laois/Offaly,2003,16,Theft
Bandon,51.7451,-8.7399,Cork West,2003,63,Theft
Bangor Erris,54.144,-9.7471,Mayo,2003,4,Theft
Bansha,52.4493,-8.0656,Tipperary,2003,8,Theft
Bantry,51.6803,-9.4552,Cork West,2003,69,Theft
Barnaderg,53.4805,-8.7225,Galway,2003,2,Theft
Barraduff,52.0598,-9.3409,Kerry,2003,2,Theft
Beal an Mhuirthead,54.2217,-9.9856,Mayo,2003,21,Theft
Beal Atha an Ghaorthaidh,51.8519,-9.229,Cork West,2003,8,Theft
Belturbet,54.1012,-7.4426,Cavan/Monaghan,2003,26,Theft
Bennettsbridge,52.5903,-7.1832,Kilkenny/Carlow,2003,7,Theft
Birr,53.096000000000004,-7.9115,Laois/Offaly,2003,109,Theft
Bishopstown,51.8807,-8.5146,Cork City,2003,267,Theft
Blacklion,54.2915,-7.8762,Cavan/Monaghan,2003,7,Theft
Blackrock Co Cork,51.8943,-8.4045,Cork North,2003,142,Theft
Blackrock Co Dublin,53.2998,-6.1775,D.M.R. Southern,2003,632,Theft
Blackrock Co Louth,53.9638,-6.3682,Louth,2003,52,Theft
Blackwater,52.4454,-6.3488,Wexford,2003,9,Theft
Blanchardstown,53.3899,-6.381,D.M.R. Western,2003,1657,Theft
Blarney,51.931999999999995,-8.5677,Cork City,2003,105,Theft
Blessington,53.1703,-6.5337,Wicklow,2003,94,Theft
Boherbue,52.159,-9.0698,Cork West,2003,13,Theft
Bonniconlon,54.1096,-9.029,Mayo,2003,4,Theft
Borris,52.6018,-6.9293,Kilkenny/Carlow,2003,13,Theft
Borris-In-Ossory,52.9393,-7.6288,Laois/Offaly,2003,13,Theft
Borrisokane,52.9971,-8.127,Tipperary,2003,14,Theft
Borrisoleigh,52.7515,-7.9554,Tipperary,2003,8,Theft
Bothar Na Tra,53.2588,-9.0797,Galway,2003,304,Theft
Boyle,53.9734,-8.3004,Roscommon/Longford,2003,36,Theft
Bray,53.1987,-6.1006,Wicklow,2003,528,Theft
Bridewell Cork,51.9005,-8.477,Cork City,2003,602,Theft
Bridewell Dublin,53.3471,-6.2741,D.M.R. North Central,2003,996,Theft
Bruff,52.4773,-8.547,Limerick,2003,16,Theft
Bruree,52.4232,-8.6503,Limerick,2003,6,Theft
Bunclody,52.6568,-6.6625,Wexford,2003,37,Theft
Buncrana,55.1313,-7.4507,Donegal,2003,57,Theft
Bundoran,54.4766,-8.2793,Donegal,2003,33,Theft
Burnfoot,55.0547,-7.4016,Donegal,2003,43,Theft
Buttevant,52.2293,-8.6713,Cork North,2003,11,Theft
Cabinteely,53.2608,-6.1507,D.M.R. Eastern,2003,407,Theft
Cabra,53.365,-6.3076,D.M.R. Western,2003,459,Theft
Caherciveen,51.946999999999996,-10.2198,Kerry,2003,15,Theft
Caherconlish,52.5938,-8.4695,Limerick,2003,17,Theft
Cahir,52.376000000000005,-7.9203,Tipperary,2003,70,Theft
Callan,52.5424,-7.391,Kilkenny/Carlow,2003,15,Theft
Campile,52.2878,-6.9396,Wexford,2003,15,Theft
Cappamore,52.6147,-8.3385,Limerick,2003,18,Theft
Cappawhite,52.5832,-8.1648,Tipperary,2003,25,Theft
Cappoquin,52.1459,-7.8457,Waterford,2003,18,Theft
Carbury,53.3385,-6.9367,Kildare,2003,23,Theft
Carlingford,54.0412,-6.1872,Louth,2003,51,Theft
Carlow,52.8405,-6.9293,Kilkenny/Carlow,2003,453,Theft
Carna,53.3236,-9.8241,Galway,2003,6,Theft
Carndonagh,55.2535,-7.2595,Donegal,2003,22,Theft
Carnew,52.7105,-6.4918,Wicklow,2003,27,Theft
Carraig Airt,55.1751,-7.7985,Donegal,2003,8,Theft
Carrickbyrne,52.3624,-6.7597,Wexford,2003,11,Theft
Carrickmacross,53.9761,-6.7188,Cavan/Monaghan,2003,110,Theft
Carrick-on-Bannow,52.2381,-6.734,Wexford,2003,19,Theft
Carrick-On-Shannon,53.9443,-8.0902,Sligo/Leitrim,2003,63,Theft
Carrick-On-Suir,52.3482,-7.4099,Tipperary,2003,49,Theft
Carrigaline,51.8148,-8.3915,Cork City,2003,63,Theft
Carrigallen,53.9756,-7.6467,Sligo/Leitrim,2003,1,Theft
Carrigans,54.9512,-7.4268,Donegal,2003,30,Theft
Carrigtwohill,51.9095,-8.2618,Cork North,2003,29,Theft
Cashel,52.5163,-7.8903,Tipperary,2003,38,Theft
Castlebar,53.8534,-9.2976,Mayo,2003,387,Theft
Castlebellingham,53.8993,-6.3899,Louth,2003,41,Theft
Castleblayney,54.1179,-6.735,Cavan/Monaghan,2003,101,Theft
Castlebridge,52.3847,-6.4526,Wexford,2003,11,Theft
Castlecomer,52.7993,-7.2095,Kilkenny/Carlow,2003,24,Theft
Castleconnell,52.7134,-8.4985,Limerick,2003,96,Theft
Castledermot,52.9092,-6.8492,Kildare,2003,37,Theft
Castlefin,54.8027,-7.5952,Donegal,2003,31,Theft
Castlegregory,52.2542,-10.0206,Kerry,2003,10,Theft
Castleisland,52.2304,-9.4628,Kerry,2003,60,Theft
Castlemaine,52.1702,-9.7006,Kerry,2003,10,Theft
Castlepollard,53.6785,-7.2966,Westmeath,2003,22,Theft
Castlerea,53.7666,-8.4841,Roscommon/Longford,2003,43,Theft
Castletownbere,51.6495,-9.9147,Cork West,2003,19,Theft
Castletownroche,52.1707,-8.468,Cork North,2003,12,Theft
Cavan,53.9933,-7.3609,Cavan/Monaghan,2003,222,Theft
Celbridge,53.343999999999994,-6.5417,Kildare,2003,223,Theft
Charlestown,53.9627,-8.7935,Mayo,2003,28,Theft
Charleville,52.3561,-8.6826,Cork North,2003,56,Theft
Cill Ronain,53.1213,-9.6678,Galway,2003,5,Theft
Clane,53.2937,-6.6859,Kildare,2003,85,Theft
Clara,53.3454,-7.6141,Laois/Offaly,2003,57,Theft
Claremorris,53.7236,-8.9851,Mayo,2003,91,Theft
Clifden,53.4882,-10.0092,Galway,2003,50,Theft
Cloch na Ron,53.3936,-9.9211,Galway,2003,3,Theft
Cloghan,53.2248,-7.8775,Laois/Offaly,2003,12,Theft
Clogheen,52.2769,-7.9953,Tipperary,2003,15,Theft
Clogher,54.8368,-8.4275,Donegal,2003,3,Theft
Clogherhead,53.7904,-6.2427,Louth,2003,33,Theft
Clonakilty,51.6249,-8.8889,Cork West,2003,76,Theft
Clonark,53.3684,-8.0347,Roscommon/Longford,2003,13,Theft
Clonaslee,53.1486,-7.526,Laois/Offaly,2003,5,Theft
Clonbologue,53.2591,-7.0858,Laois/Offaly,2003,8,Theft
Clondalkin,53.3231,-6.395,D.M.R. Western,2003,846,Theft
Clones,54.1775,-7.2282,Cavan/Monaghan,2003,58,Theft
Clonmany,55.263000000000005,-7.4128,Donegal,2003,7,Theft
Clonmel,52.3541,-7.6999,Tipperary,2003,211,Theft
Clonroche,52.4504,-6.7159,Wexford,2003,31,Theft
Clontarf,53.3635,-6.2201,D.M.R. Northern,2003,766,Theft
Cloughjordan,52.942,-8.0397,Tipperary,2003,8,Theft
Cloyne,51.8628,-8.1235,Cork North,2003,6,Theft
Coachford,51.9091,-8.7911,Cork West,2003,10,Theft
Cobh,51.8482,-8.3036,Cork North,2003,110,Theft
Collon,53.7779,-6.4849,Louth,2003,9,Theft
Collooney,54.1855,-8.4879,Sligo/Leitrim,2003,35,Theft
Cong,53.5415,-9.2865,Mayo,2003,27,Theft
Convoy,54.8593,-7.669,Donegal,2003,21,Theft
Coolaney,54.1724,-8.6034,Sligo/Leitrim,2003,8,Theft
Coolock,53.3903,-6.2011,D.M.R. Northern,2003,983,Theft
Cootehill,54.0747,-7.0787,Cavan/Monaghan,2003,53,Theft
Corofin,52.9475,-9.0686,Clare,2003,15,Theft
Corofin,53.4376,-8.8631,Galway,2003,4,Theft
Courtown Harbour,52.6443,-6.2305,Wexford,2003,34,Theft
Craughwell,53.2294,-8.7339,Galway,2003,27,Theft
Creggs,53.5949,-8.3638,Galway,2003,3,Theft
Crookstown,51.8587,-8.8013,Cork West,2003,15,Theft
Croom,52.522,-8.7188,Limerick,2003,31,Theft
Crosshaven,51.803999999999995,-8.3045,Cork City,2003,25,Theft
Crossmolina,54.0998,-9.3227,Mayo,2003,11,Theft
Crumlin,53.3196,-6.315,D.M.R. Southern,2003,533,Theft
Crusheen,52.9385,-8.8986,Clare,2003,8,Theft
Daingean,53.293,-7.2936,Laois/Offaly,2003,18,Theft
Delvin,53.6145,-7.0901,Westmeath,2003,19,Theft
Dingle,52.1392,-10.2705,Kerry,2003,12,Theft
Dolla,52.7971,-8.1921,Tipperary,2003,1,Theft
Donegal Town,54.6524,-8.1111,Donegal,2003,74,Theft
Doneraile,52.2157,-8.5854,Cork North,2003,18,Theft
Donnybrook,53.3217,-6.2359,D.M.R. South Central,2003,905,Theft
Douglas,51.8751,-8.431000000000001,Cork City,2003,238,Theft
Dowra,54.1904,-8.0153,Cavan/Monaghan,2003,10,Theft
Drimoleague,51.659,-9.264,Cork West,2003,12,Theft
Drinagh,51.6477,-9.1545,Cork West,2003,1,Theft
Drogheda,53.7151,-6.3566,Louth,2003,523,Theft
Drumad,54.0957,-6.3608,Louth,2003,76,Theft
Drumcollogher,52.3382,-8.9113,Limerick,2003,13,Theft
Drumlish,53.8217,-7.7659,Roscommon/Longford,2003,6,Theft
Drumshambo,54.0465,-8.04,Sligo/Leitrim,2003,26,Theft
Dublin Airport,53.4299,-6.2455,D.M.R. Northern,2003,284,Theft
Duleek,53.6539,-6.4181,Meath,2003,37,Theft
Dun Fionnachaid,55.1829,-7.9744,Donegal,2003,23,Theft
Dun Laoghaire,53.2899,-6.1333,D.M.R. Eastern,2003,1070,Theft
Dunboyne,53.4211,-6.4771,Meath,2003,116,Theft
Duncannon,52.2214,-6.9298,Wexford,2003,21,Theft
Dundalk,53.9995,-6.4097,Louth,2003,917,Theft
Dundrum,53.2895,-6.2426,D.M.R. Eastern,2003,745,Theft
Dungarvan,52.0877,-7.6245,Waterford,2003,234,Theft
Dunlavin,53.0588,-6.7011,Wicklow,2003,28,Theft
Dunleer,53.8285,-6.3946,Louth,2003,40,Theft
Dunmanway,51.7228,-9.1101,Cork West,2003,16,Theft
Dunmore East,52.1484,-6.9929,Waterford,2003,17,Theft
Dunmore,53.6176,-8.7406,Galway,2003,8,Theft
Dunshaughlin,53.5108,-6.5393,Meath,2003,73,Theft
Durrow,52.8443,-7.3961,Laois/Offaly,2003,18,Theft
Durrus,51.6205,-9.524,Cork West,2003,3,Theft
Edenderry,53.3368,-7.0608,Laois/Offaly,2003,70,Theft
Edgeworthstown,53.6956,-7.606,Roscommon/Longford,2003,48,Theft
Elphin,53.8458,-8.1925,Roscommon/Longford,2003,5,Theft
Emly,52.4651,-8.3542,Tipperary,2003,4,Theft
Emyvale,54.3394,-6.9576,Cavan/Monaghan,2003,50,Theft
Enfield,53.4151,-6.8339,Meath,2003,47,Theft
Ennis,52.8469,-8.9811,Clare,2003,470,Theft
Enniscorthy,52.5007,-6.5707,Wexford,2003,177,Theft
Enniscrone,54.2138,-9.0885,Sligo/Leitrim,2003,23,Theft
Enniskerry,53.1913,-6.1695,Wicklow,2003,82,Theft
Ennistymon,52.9374,-9.2885,Clare,2003,71,Theft
Eyrecourt,53.1994,-8.1324,Galway,2003,1,Theft
Farranfore,52.1714,-9.5497,Kerry,2003,11,Theft
Ferbane,53.2708,-7.8276,Laois/Offaly,2003,34,Theft
Fermoy,52.1385,-8.2742,Cork North,2003,101,Theft
Ferns,52.591,-6.4978,Wexford,2003,17,Theft
Ferrybank,52.2675,-7.1011,Waterford,2003,34,Theft
Fethard,52.4664,-7.6944,Tipperary,2003,22,Theft
Finglas,53.3896,-6.3068,D.M.R. Western,2003,706,Theft
Fitzgibbon Street,53.3577,-6.2554,D.M.R. North Central,2003,1037,Theft
Foxford,53.9833,-9.1084,Mayo,2003,16,Theft
Foynes,52.6097,-9.1037,Limerick,2003,15,Theft
Frenchpark,53.8692,-8.4056,Roscommon/Longford,2003,12,Theft
Freshford,52.7324,-7.3944,Kilkenny/Carlow,2003,4,Theft
Gaillimh,53.2713,-9.0583,Galway,2003,1388,Theft
Garristown,53.5671,-6.3839,D.M.R. Northern,2003,18,Theft
Glanmire,51.9184,-8.3968,Cork City,2003,127,Theft
Glantaine,52.1047,-8.7488,Cork North,2003,10,Theft
Glasson,53.4717,-7.8635,Westmeath,2003,30,Theft
Gleann na Muaidhe,54.2408,-9.6788,Mayo,2003,4,Theft
Glenamaddy,53.6074,-8.5602,Galway,2003,8,Theft
Glenbeigh,52.0571,-9.9371,Kerry,2003,3,Theft
Glengarriff,51.7506,-9.5507,Cork West,2003,14,Theft
Glenmore,52.3538,-7.028,Kilkenny/Carlow,2003,3,Theft
Glin,52.5696,-9.2845,Limerick,2003,3,Theft
Glynn,52.3728,-6.5829,Wexford,2003,6,Theft
Gob an Choire,53.9337,-9.9185,Mayo,2003,4,Theft
Golden,52.4968,-7.9847,Tipperary,2003,10,Theft
Goresbridge,52.63,-6.9944,Kilkenny/Carlow,2003,8,Theft
Gorey,52.675,-6.2973,Wexford,2003,147,Theft
Gort,53.0674,-8.8182,Galway,2003,53,Theft
Graiguenamanagh,52.5425,-6.9568,Kilkenny/Carlow,2003,30,Theft
Granard,53.7786,-7.4942,Roscommon/Longford,2003,54,Theft
Grange,54.3934,-8.5207,Sligo/Leitrim,2003,27,Theft
Greystones,53.148,-6.0632,Wicklow,2003,246,Theft
Gurranabraher,51.9034,-8.4966,Cork City,2003,255,Theft
Gurteen,53.993,-8.5158,Sligo/Leitrim,2003,7,Theft
Hackballscross,54.0316,-6.5242,Louth,2003,15,Theft
Hacketstown,52.8643,-6.557,Kilkenny/Carlow,2003,9,Theft
Headford,53.4703,-9.0983,Galway,2003,11,Theft
Henry Street,52.6617,-8.6316,Limerick,2003,1750,Theft
Holycross,52.6426,-7.8729,Tipperary,2003,6,Theft
Hospital Co Limerick,52.4752,-8.4325,Limerick,2003,10,Theft
Howth,53.3873,-6.069,D.M.R. Northern,2003,351,Theft
Indreabhan,53.2406,-9.4296,Galway,2003,10,Theft
Innishannon,51.7644,-8.6554,Cork West,2003,12,Theft
Irishtown,53.3382,-6.2233,D.M.R. South Central,2003,591,Theft
Kanturk,52.1759,-8.9126,Cork West,2003,37,Theft
Keadue,54.0506,-8.1373,Roscommon/Longford,2003,5,Theft
Kealkil,51.755,-9.3753,Cork West,2003,4,Theft
Keel,53.9754,-10.0822,Mayo,2003,5,Theft
Kells Ceanannus Mor,53.7284,-6.8812,Meath,2003,99,Theft
Kenagh,53.622,-7.8151,Roscommon/Longford,2003,5,Theft
Kenmare,51.8785,-9.5816,Kerry,2003,21,Theft
Kerrykeel,55.1371,-7.6663,Donegal,2003,13,Theft
Kevin Street,53.339,-6.2702,D.M.R. South Central,2003,1231,Theft
Kilbeggan,53.3685,-7.4992,Westmeath,2003,35,Theft
Kilbrittain,51.6735,-8.6901,Cork West,2003,10,Theft
Kilcock,53.4038,-6.6725,Kildare,2003,53,Theft
Kilconnell,53.3314,-8.4017,Galway,2003,4,Theft
Kilcormac,53.1762,-7.7288,Laois/Offaly,2003,22,Theft
Kilcullen,53.1291,-6.7466,Kildare,2003,73,Theft
Kildare,53.156000000000006,-6.9073,Kildare,2003,128,Theft
Kildorrery,52.2454,-8.4296,Cork North,2003,8,Theft
Kildysart,52.6746,-9.1058,Clare,2003,6,Theft
Kilkee,52.6824,-9.6447,Clare,2003,25,Theft
Kilkelly,53.8734,-8.8434,Mayo,2003,7,Theft
Kilkenny,52.6524,-7.2597,Kilkenny/Carlow,2003,519,Theft
Kill Co Waterford,52.1773,-7.3351,Waterford,2003,14,Theft
Killala,54.2141,-9.2205,Mayo,2003,13,Theft
Killaloe,52.8067,-8.4437,Clare,2003,90,Theft
Killarney,52.0624,-9.5124,Kerry,2003,269,Theft
Killeagh,51.9398,-7.995,Cork North,2003,37,Theft
Killenaule,52.5685,-7.6728,Tipperary,2003,22,Theft
Killeshandra,54.0118,-7.5259,Cavan/Monaghan,2003,8,Theft
Killimor,53.1659,-8.2942,Galway,2003,6,Theft
Killorglin,52.1065,-9.7871,Kerry,2003,19,Theft
Killucan,53.5147,-7.1397,Westmeath,2003,15,Theft
Kilmacow,52.3146,-7.1748,Kilkenny/Carlow,2003,3,Theft
Kilmacrennan,55.0295,-7.7785,Donegal,2003,19,Theft
Kilmacthomas,52.2062,-7.4213,Waterford,2003,8,Theft
Kilmaine,53.5826,-9.1238,Mayo,2003,2,Theft
Kilmainham,53.3419,-6.3043,D.M.R. South Central,2003,758,Theft
Kilmallock,52.3984,-8.5758,Limerick,2003,23,Theft
Kilmeaden,52.2462,-7.245,Waterford,2003,12,Theft
Kilmoganny,52.4609,-7.3293,Kilkenny/Carlow,2003,2,Theft
Kilmore Quay,52.1787,-6.5837,Wexford,2003,11,Theft
Kilnaleck,53.8585,-7.3179,Cavan/Monaghan,2003,16,Theft
Kilrickle,53.2302,-8.4524,Galway,2003,14,Theft
Kilrush,52.6411,-9.4811,Clare,2003,41,Theft
Kilsheelan,52.3615,-7.5798,Tipperary,2003,5,Theft
Kiltimagh,53.8461,-9.0058,Mayo,2003,33,Theft
Kiltormer,53.2376,-8.2713,Galway,2003,1,Theft
Kilworth,52.1763,-8.2496,Cork North,2003,14,Theft
Kingscourt,53.9043,-6.8068,Cavan/Monaghan,2003,38,Theft
Kinlough,54.4458,-8.287,Sligo/Leitrim,2003,23,Theft
Kinnegad,53.4559,-7.1028,Westmeath,2003,58,Theft
Kinnitty,53.0984,-7.7221,Laois/Offaly,2003,5,Theft
Kinsale,51.7063,-8.5255,Cork West,2003,120,Theft
Kinvara,53.1405,-8.9397,Galway,2003,19,Theft
Knock,53.7954,-8.9188,Mayo,2003,25,Theft
Knocknagoshel,52.3307,-9.3853,Kerry,2003,9,Theft
Lanesboro,53.67100000000001,-7.9853,Roscommon/Longford,2003,28,Theft
Laytown,53.6892,-6.244,Meath,2003,98,Theft
Leach Seoirse,53.3571,-8.9313,Galway,2003,21,Theft
Leamybrien,52.1693,-7.5216,Waterford,2003,15,Theft
Leitir Mor,53.2943,-9.6551,Galway,2003,10,Theft
Leixlip,53.3674,-6.4982,Kildare,2003,235,Theft
Letterfrack,53.5542,-9.9477,Galway,2003,7,Theft
Letterkenny,54.9547,-7.7364,Donegal,2003,394,Theft
Lifford,54.8328,-7.4803,Donegal,2003,32,Theft
Liscarroll,52.2596,-8.8063,Cork North,2003,4,Theft
Lisdoonvarna,53.0286,-9.2897,Clare,2003,22,Theft
Lismore,52.1367,-7.9355,Waterford,2003,26,Theft
Lissycasey,52.7461,-9.1544,Clare,2003,5,Theft
Listowel,52.4471,-9.4839,Kerry,2003,104,Theft
Littleton,52.6407,-7.7349,Tipperary,2003,14,Theft
Lixnaw,52.4041,-9.6166,Kerry,2003,11,Theft
Longford,53.7325,-7.8014,Roscommon/Longford,2003,278,Theft
Longwood,53.4546,-6.9270000000000005,Meath,2003,1,Theft
Lorrha,53.0937,-8.1221,Tipperary,2003,11,Theft
Loughrea,53.1974,-8.5699,Galway,2003,124,Theft
Louisburgh,53.7646,-9.8076,Mayo,2003,7,Theft
Louth,53.9524,-6.5379,Louth,2003,12,Theft
Lucan,53.3561,-6.4507,D.M.R. Western,2003,798,Theft
Lusk,53.5234,-6.1673,D.M.R. Northern,2003,110,Theft
Macroom,51.9063,-8.964,Cork West,2003,40,Theft
Maigh Cuilinn,53.3383,-9.1812,Galway,2003,28,Theft
Malahide,53.4512,-6.1519,D.M.R. Northern,2003,441,Theft
Mallow,52.1388,-8.6459,Cork North,2003,192,Theft
Manorhamilton,54.3044,-8.1785,Sligo/Leitrim,2003,47,Theft
Mayfield,51.9097,-8.429,Cork City,2003,162,Theft
Maynooth,53.3808,-6.5927,Kildare,2003,274,Theft
Mayorstone Park,52.6737,-8.6448,Limerick,2003,513,Theft
Midleton,51.9167,-8.1735,Cork North,2003,111,Theft
Milford Co Cork,52.3425,-8.8564,Cork North,2003,4,Theft
Milford,55.086999999999996,-7.6982,Donegal,2003,18,Theft
Millstreet Co. Cork,52.0601,-9.0615,Cork West,2003,25,Theft
Milltown,53.6116,-8.8975,Galway,2003,3,Theft
Miltown Malbay,52.8575,-9.4006,Clare,2003,32,Theft
Mitchelstown,52.2636,-8.2706,Cork North,2003,69,Theft
Moate,53.3957,-7.7345,Westmeath,2003,29,Theft
Mohill,53.9208,-7.8681,Sligo/Leitrim,2003,28,Theft
Monaghan,54.2514,-6.9675,Cavan/Monaghan,2003,210,Theft
Monasterevin,53.1382,-7.0547,Kildare,2003,60,Theft
Moneygall,52.8813,-7.9534,Tipperary,2003,5,Theft
Monivea,53.373999999999995,-8.7023,Galway,2003,0,Theft
Mooncoin,52.292,-7.2516,Kilkenny/Carlow,2003,11,Theft
Mountbellew,53.4712,-8.5001,Galway,2003,13,Theft
Mountcharles,54.6459,-8.1957,Donegal,2003,12,Theft
Mountjoy,53.3605,-6.2668,D.M.R. North Central,2003,1067,Theft
Mountmellick,53.1188,-7.3351,Laois/Offaly,2003,41,Theft
Mountrath,52.9982,-7.4781,Laois/Offaly,2003,45,Theft
Moville,55.1916,-7.0286,Donegal,2003,34,Theft
Moylough,53.4877,-8.567,Galway,2003,5,Theft
Moyne,52.7343,-7.7141,Tipperary,2003,4,Theft
Muff,55.0686,-7.2688,Donegal,2003,36,Theft
Muine Bheag,52.7013,-6.9574,Kilkenny/Carlow,2003,34,Theft
Mullagh,53.8111,-6.9432,Cavan/Monaghan,2003,15,Theft
Mullinahone,52.5102,-7.5056,Tipperary,2003,4,Theft
Mullinavat,52.3664,-7.1721,Kilkenny/Carlow,2003,11,Theft
Mullingar,53.5257,-7.346,Westmeath,2003,437,Theft
Multyfarnham,53.6242,-7.3923,Westmeath,2003,12,Theft
Murroe,52.6497,-8.3992,Limerick,2003,2,Theft
Myshall,52.6875,-6.7784,Kilkenny/Carlow,2003,0,Theft
Na Cealla Beaga,54.6366,-8.4444,Donegal,2003,28,Theft
Na Gleannta,54.7955,-8.281,Donegal,2003,13,Theft
Naas,53.2107,-6.666,Kildare,2003,624,Theft
Navan,53.6545,-6.6904,Meath,2003,352,Theft
Nenagh,52.8643,-8.1996,Tipperary,2003,129,Theft
New Ross,52.3876,-6.9508,Wexford,2003,118,Theft
Newbridge,53.1814,-6.7955,Kildare,2003,251,Theft
Newcastle West,52.4537,-9.0624,Limerick,2003,94,Theft
Newmarket,52.2146,-8.997,Cork West,2003,18,Theft
Newmarket on Fergus,52.7632,-8.8991,Clare,2003,26,Theft
Newport Co Mayo,53.8902,-9.5467,Mayo,2003,12,Theft
Newport Co Tipperary,52.7107,-8.4063,Tipperary,2003,21,Theft
Newtowncunningham,54.9976,-7.5078,Donegal,2003,21,Theft
Newtownmountkennedy,53.0969,-6.1094,Wicklow,2003,55,Theft
Nobber,53.821000000000005,-6.7466,Meath,2003,12,Theft
Oldcastle,53.7693,-7.1619,Meath,2003,43,Theft
Omeath,54.0865,-6.2563,Louth,2003,26,Theft
Oola,52.53,-8.2597,Limerick,2003,7,Theft
Oughterard,53.4274,-9.3245,Galway,2003,22,Theft
Oulart,52.5033,-6.3913,Wexford,2003,14,Theft
Oylegate,52.4241,-6.5296,Wexford,2003,5,Theft
Pallasgreen,52.5687,-8.3382,Limerick,2003,10,Theft
Pallaskenry,52.6405,-8.8665,Limerick,2003,24,Theft
Partry,53.6987,-9.2796,Mayo,2003,9,Theft
Passage East,52.2392,-6.9728,Waterford,2003,5,Theft
Passage West,51.8652,-8.3317,Cork City,2003,37,Theft
Patrickswell,52.5958,-8.7129,Limerick,2003,22,Theft
Pearse Street,53.3457,-6.2563,D.M.R. South Central,2003,5301,Theft
Pettigo,54.5482,-7.8349,Donegal,2003,3,Theft
Piltown,52.3498,-7.3255,Kilkenny/Carlow,2003,5,Theft
Portarlington,53.1592,-7.1878,Laois/Offaly,2003,67,Theft
Portlaoise,53.0317,-7.3031,Laois/Offaly,2003,487,Theft
Portlaw,52.2863,-7.3176,Waterford,2003,9,Theft
Portmagee,51.8852,-10.3618,Kerry,2003,4,Theft
Portroe,52.8819,-8.3537,Tipperary,2003,9,Theft
Portumna,53.09,-8.2204,Galway,2003,53,Theft
Raheny,53.379,-6.178,D.M.R. Northern,2003,389,Theft
Ramelton,55.0367,-7.6507,Donegal,2003,10,Theft
Raphoe,54.8744,-7.5944,Donegal,2003,35,Theft
Rathangan,53.2221,-6.9975,Kildare,2003,30,Theft
Rathcoole,53.2818,-6.4647,D.M.R. Western,2003,236,Theft
Rathcormac Co Cork,52.0761,-8.2843,Cork North,2003,19,Theft
Rathdowney,52.8567,-7.5978,Laois/Offaly,2003,22,Theft
Rathdrum,52.931000000000004,-6.2265,Wicklow,2003,86,Theft
Rathfarnham,53.2974,-6.2881,D.M.R. Southern,2003,883,Theft
Rathgormack,52.3075,-7.5038,Waterford,2003,1,Theft
Rathkeale,52.5234,-8.939,Limerick,2003,21,Theft
Rathmines,53.3213,-6.267,D.M.R. Southern,2003,832,Theft
Rathmore Co Kerry,52.0843,-9.2142,Kerry,2003,20,Theft
Rathmullen,55.0958,-7.5326,Donegal,2003,4,Theft
Rathvilly,52.8804,-6.6954,Kilkenny/Carlow,2003,15,Theft
Rhode,53.3511,-7.1948,Laois/Offaly,2003,20,Theft
Riverstown,54.1296,-8.4,Sligo/Leitrim,2003,11,Theft
Robertstown,53.2702,-6.8164,Kildare,2003,33,Theft
Rochfortbridge,53.4133,-7.3018,Westmeath,2003,26,Theft
Rockcorry,54.1202,-7.0094,Cavan/Monaghan,2003,2,Theft
Ronanstown,53.3379,-6.406000000000001,D.M.R. Western,2003,938,Theft
Roosky,53.8329,-7.9228,Roscommon/Longford,2003,15,Theft
Ros Muc,53.3864,-9.6099,Galway,2003,2,Theft
Roscommon,53.6298,-8.1936,Roscommon/Longford,2003,137,Theft
Roscrea,52.9562,-7.7988,Tipperary,2003,106,Theft
Rosscarbery,51.5776,-9.0315,Cork West,2003,8,Theft
Rosses Point,54.3054,-8.5465,Sligo/Leitrim,2003,15,Theft
Rosslare Harbour,52.2487,-6.3341,Wexford,2003,38,Theft
Rosslare Strand,52.2696,-6.3848,Wexford,2003,33,Theft
Roundwood,53.063,-6.2247,Wicklow,2003,39,Theft
Roxboro Road,52.6508,-8.615,Limerick,2003,1018,Theft
Santry,53.3897,-6.2516,D.M.R. Northern,2003,891,Theft
Scariff,52.9068,-8.5348,Clare,2003,20,Theft
Schull,51.5287,-9.5414,Cork West,2003,37,Theft
Scotstown,54.2803,-7.0636,Cavan/Monaghan,2003,8,Theft
Shankill,53.2335,-6.121,D.M.R. Eastern,2003,264,Theft
Shannon,52.7079,-8.8772,Clare,2003,192,Theft
Shercock,53.9922,-6.9008,Cavan/Monaghan,2003,10,Theft
Shevry,52.6869,-8.0471,Tipperary,2003,6,Theft
Shillelagh,52.7546,-6.5375,Wicklow,2003,19,Theft
Shinrone,52.9847,-7.9341,Laois/Offaly,2003,11,Theft
Shrule,53.5199,-9.0876,Mayo,2003,2,Theft
Sixmilebridge,52.7401,-8.7779,Clare,2003,28,Theft
Skerries,53.5796,-6.107,D.M.R. Northern,2003,75,Theft
Skibbereen,51.5486,-9.2641,Cork West,2003,54,Theft
Skreen,54.2446,-8.7204,Sligo/Leitrim,2003,4,Theft
Slane,53.7097,-6.5475,Meath,2003,27,Theft
Sligo,54.2693,-8.4713,Sligo/Leitrim,2003,685,Theft
Smear,53.8606,-7.6017,Roscommon/Longford,2003,8,Theft
Sneem,51.8389,-9.904,Kerry,2003,11,Theft
Sraith Salach,53.4653,-9.7214,Galway,2003,1,Theft
Stoneyford,52.5364,-7.2286,Kilkenny/Carlow,2003,5,Theft
Store Street,53.3505,-6.2522,D.M.R. North Central,2003,5273,Theft
Stradbally Co Laois,53.0177,-7.1516,Laois/Offaly,2003,20,Theft
Strokestown,53.7808,-8.1038,Roscommon/Longford,2003,9,Theft
Stuake,51.9905,-8.7604,Cork West,2003,5,Theft
Summerhill,53.482,-6.7334,Meath,2003,25,Theft
Sundrive Road,53.3302,-6.2987,D.M.R. Southern,2003,596,Theft
Swanlinbar,54.1961,-7.7038,Cavan/Monaghan,2003,4,Theft
Swinford,53.9406,-8.9522,Mayo,2003,20,Theft
Swords,53.456,-6.2211,D.M.R. Northern,2003,758,Theft
Taghmon,52.321999999999996,-6.6517,Wexford,2003,13,Theft
Tallaght,53.2868,-6.3678,D.M.R. Southern,2003,1802,Theft
Tallow,52.0937,-8.0073,Waterford,2003,10,Theft
Tarbert,52.5727,-9.3754,Kerry,2003,8,Theft
Tarelton,51.8385,-8.9929,Cork West,2003,5,Theft
Taughmaconnell,53.4032,-8.141,Roscommon/Longford,2003,2,Theft
Templederry,52.7741,-8.075,Tipperary,2003,2,Theft
Templemore,52.7966,-7.8351,Tipperary,2003,56,Theft
Templetuohy,52.7903,-7.7201,Tipperary,2003,10,Theft
Terenure,53.3098,-6.287999999999999,D.M.R. Southern,2003,479,Theft
Thomastown,52.528999999999996,-7.14,Kilkenny/Carlow,2003,21,Theft
Thurles,52.6757,-7.8119,Tipperary,2003,206,Theft
Timoleague,51.6427,-8.7663,Cork West,2003,7,Theft
Tinahely,52.7967,-6.4693,Wicklow,2003,12,Theft
Tipperary,52.4761,-8.1629,Tipperary,2003,96,Theft
Togher,51.8764,-8.4863,Cork City,2003,297,Theft
Toomevara,52.8497,-8.0365,Tipperary,2003,11,Theft
Tralee,52.2695,-9.7088,Kerry,2003,518,Theft
Tramore,52.1615,-7.1534,Waterford,2003,155,Theft
Trim,53.5531,-6.7893,Meath,2003,98,Theft
Tuam,53.5157,-8.8559,Galway,2003,136,Theft
Tubbercurry,54.0516,-8.7343,Sligo/Leitrim,2003,18,Theft
Tulla,52.8654,-8.7548,Clare,2003,12,Theft
Tullamore,53.2761,-7.4949,Laois/Offaly,2003,342,Theft
Tullow,52.8038,-6.7334,Kilkenny/Carlow,2003,65,Theft
Tulsk,53.7774,-8.2518,Roscommon/Longford,2003,2,Theft
Urlingford,52.7221,-7.5798,Kilkenny/Carlow,2003,21,Theft
Virginia,53.8344,-7.0819,Cavan/Monaghan,2003,27,Theft
Watercourse Road,51.9071,-8.4745,Cork City,2003,554,Theft
Waterford,52.2602,-7.1137,Waterford,2003,1324,Theft
Watergrasshill,52.0134,-8.342,Cork North,2003,26,Theft
Westport,53.7991,-9.5194,Mayo,2003,72,Theft
Wexford,52.3355,-6.462000000000001,Wexford,2003,493,Theft
Whitegate,51.8271,-8.2278,Cork North,2003,6,Theft
Wicklow,52.9814,-6.0426,Wicklow,2003,250,Theft
Williamstown,53.6771,-8.5784,Galway,2003,4,Theft
Woodford,53.0476,-8.4001,Galway,2003,8,Theft
Youghal,51.9481,-7.8428,Cork North,2003,124,Theft
Abbeyfeale,52.3873,-9.29,Limerick,2004,15,Theft
Abbeyleix,52.9127,-7.3438,Laois/Offaly,2004,46,Theft
Adare,52.5639,-8.7921,Limerick,2004,11,Theft
Aglish,52.0716,-7.8221,Waterford,2004,7,Theft
Ahascragh,53.3957,-8.3306,Galway,2004,4,Theft
Ailt an Chorrain,54.9849,-8.4386,Donegal,2004,7,Theft
An Bun Beag,55.0656,-8.2895,Donegal,2004,16,Theft
An Charraig,54.6579,-8.6331,Donegal,2004,5,Theft
An Cheathru Rua,53.2645,-9.6005,Galway,2004,12,Theft
An Clochan Liath,54.9516,-8.3613,Donegal,2004,12,Theft
An Coirean,51.8311,-10.1742,Kerry,2004,6,Theft
An Craoslach,55.1253,-7.9126,Donegal,2004,8,Theft
An Fál Carrach,55.137,-8.102,Donegal,2004,20,Theft
An Maim,53.5107,-9.5649,Galway,2004,8,Theft
An Rinn,52.0484,-7.5931,Waterford,2004,8,Theft
An Spideal,53.2454,-9.3056,Galway,2004,20,Theft
Anglesea Street,51.8958,-8.465,Cork City,2004,1408,Theft
Annascaul,52.1524,-10.0525,Kerry,2004,3,Theft
Aran Mor,53.2721,-8.9319,Galway,2004,194,Theft
Ard An Rátha,54.7645,-8.4095,Donegal,2004,10,Theft
Ardee,53.8549,-6.5411,Louth,2004,42,Theft
Ardfert,52.3235,-9.7789,Kerry,2004,13,Theft
Ardfinnan,52.3118,-7.8783,Tipperary,2004,5,Theft
Ardmore,51.951,-7.7282,Waterford,2004,15,Theft
Ardnacrusha,52.7077,-8.6131,Limerick,2004,55,Theft
Ardrahan,53.1566,-8.8065,Galway,2004,8,Theft
Arklow,52.7963,-6.1546,Wicklow,2004,215,Theft
Arles,52.891000000000005,-7.0189,Laois/Offaly,2004,15,Theft
Arva,53.9254,-7.5838,Cavan/Monaghan,2004,9,Theft
Ashbourne,53.5114,-6.397,Meath,2004,203,Theft
Ashford,53.0139,-6.1073,Wicklow,2004,71,Theft
Askeaton,52.6006,-8.9712,Limerick,2004,21,Theft
Athea,52.4599,-9.2875,Limerick,2004,4,Theft
Athenry,53.2997,-8.7497,Galway,2004,32,Theft
Athleague,53.5687,-8.2524,Roscommon/Longford,2004,7,Theft
Athlone,53.4233,-7.9447,Westmeath,2004,428,Theft
Athy,52.9902,-6.9882,Kildare,2004,178,Theft
Aughrim,52.856,-6.3268,Wicklow,2004,20,Theft
Avoca,52.8588,-6.2129,Wicklow,2004,16,Theft
Baile Atha Bui,53.6236,-6.9159,Meath,2004,33,Theft
Baile an Fheirtéaraigh,52.1659,-10.4062,Kerry,2004,0,Theft
Baile Bhuirne,51.9458,-9.1692,Cork West,2004,5,Theft
Bailieboro,53.9152,-6.9696,Cavan/Monaghan,2004,35,Theft
Balbriggan,53.6143,-6.1912,D.M.R. Northern,2004,147,Theft
Balla,53.8019,-9.1299,Mayo,2004,14,Theft
Ballaghderreen,53.8999,-8.5846,Roscommon/Longford,2004,15,Theft
Ballina,54.1129,-9.1604,Mayo,2004,153,Theft
Ballinagh,53.9311,-7.4096,Cavan/Monaghan,2004,11,Theft
Ballinamore,54.0546,-7.797000000000001,Sligo/Leitrim,2004,9,Theft
Ballinasloe,53.3284,-8.2236,Galway,2004,118,Theft
Ballincollig,51.8882,-8.5903,Cork City,2004,115,Theft
Ballindine,53.6696,-8.9577,Mayo,2004,7,Theft
Ballineen,51.7359,-8.9489,Cork West,2004,9,Theft
Ballingarry,52.4721,-8.8628,Limerick,2004,13,Theft
Ballingarry North,53.0184,-8.0305,Tipperary,2004,1,Theft
Ballingarry South,52.586000000000006,-7.541,Tipperary,2004,12,Theft
Ballinhassig,51.8041,-8.5705,Cork West,2004,20,Theft
Ballinlough,53.7408,-8.6358,Roscommon/Longford,2004,8,Theft
Ballinrobe,53.6246,-9.2262,Mayo,2004,37,Theft
Ballintra,54.5778,-8.1254,Donegal,2004,32,Theft
Ballivor,53.5327,-6.9672,Meath,2004,29,Theft
Ballon,52.7432,-6.7722,Kilkenny/Carlow,2004,15,Theft
Ballybay,54.1289,-6.9048,Cavan/Monaghan,2004,23,Theft
Ballybofey,54.7996,-7.781000000000001,Donegal,2004,111,Theft
Ballybunion,52.5113,-9.6702,Kerry,2004,30,Theft
Ballyconnell,54.119,-7.5802,Cavan/Monaghan,2004,23,Theft
Ballycotton,51.8303,-8.0131,Cork North,2004,11,Theft
Ballycroy,54.0258,-9.8259,Mayo,2004,0,Theft
Ballycullane,52.2789,-6.8392,Wexford,2004,7,Theft
Ballydehob,51.5591,-9.4608,Cork West,2004,2,Theft
Ballydesmond,52.1782,-9.231,Cork West,2004,10,Theft
Ballyduff,52.4559,-9.6631,Kerry,2004,2,Theft
Ballyfermot,53.3448,-6.358,D.M.R. Western,2004,538,Theft
Ballygar,53.5219,-8.3284,Galway,2004,12,Theft
Ballyhale,52.4683,-7.2015,Kilkenny/Carlow,2004,9,Theft
Ballyhaunis,53.763999999999996,-8.7674,Mayo,2004,22,Theft
Ballyheigue,52.3892,-9.8275,Kerry,2004,4,Theft
Ballyjamesduff,53.8631,-7.2088,Cavan/Monaghan,2004,17,Theft
Ballylanders,52.3707,-8.3455,Limerick,2004,13,Theft
Ballylinan,52.943000000000005,-7.0432,Laois/Offaly,2004,25,Theft
Ballymacarberry,52.2672,-7.7177,Waterford,2004,7,Theft
Ballymahon,53.5613,-7.7608,Roscommon/Longford,2004,34,Theft
Ballymore,53.4911,-7.6817,Westmeath,2004,8,Theft
Ballymote,54.0874,-8.5152,Sligo/Leitrim,2004,19,Theft
Ballymun,53.3945,-6.2637,D.M.R. Northern,2004,431,Theft
Ballynacargy,53.5863,-7.5349,Westmeath,2004,12,Theft
Ballyneety,52.5973,-8.5489,Limerick,2004,33,Theft
Ballynoe,52.0602,-8.0993,Cork North,2004,5,Theft
Ballyporeen,52.2702,-8.0977,Tipperary,2004,7,Theft
Ballyshannon,54.4987,-8.2048,Donegal,2004,37,Theft
Ballyvaughan,53.1162,-9.1471,Clare,2004,11,Theft
Baltimore,51.4835,-9.3723,Cork West,2004,5,Theft
Baltinglass,52.93899999999999,-6.7098,Wicklow,2004,86,Theft
Banagher,53.1905,-7.9859,Laois/Offaly,2004,16,Theft
Bandon,51.7451,-8.7399,Cork West,2004,107,Theft
Bangor Erris,54.144,-9.7471,Mayo,2004,9,Theft
Bansha,52.4493,-8.0656,Tipperary,2004,7,Theft
Bantry,51.6803,-9.4552,Cork West,2004,46,Theft
Barnaderg,53.4805,-8.7225,Galway,2004,11,Theft
Barraduff,52.0598,-9.3409,Kerry,2004,3,Theft
Beal an Mhuirthead,54.2217,-9.9856,Mayo,2004,15,Theft
Beal Atha an Ghaorthaidh,51.8519,-9.229,Cork West,2004,7,Theft
Belturbet,54.1012,-7.4426,Cavan/Monaghan,2004,25,Theft
Bennettsbridge,52.5903,-7.1832,Kilkenny/Carlow,2004,9,Theft
Birr,53.096000000000004,-7.9115,Laois/Offaly,2004,97,Theft
Bishopstown,51.8807,-8.5146,Cork City,2004,285,Theft
Blacklion,54.2915,-7.8762,Cavan/Monaghan,2004,5,Theft
Blackrock Co Cork,51.8943,-8.4045,Cork North,2004,182,Theft
Blackrock Co Dublin,53.2998,-6.1775,D.M.R. Southern,2004,639,Theft
Blackrock Co Louth,53.9638,-6.3682,Louth,2004,46,Theft
Blackwater,52.4454,-6.3488,Wexford,2004,17,Theft
Blanchardstown,53.3899,-6.381,D.M.R. Western,2004,2049,Theft
Blarney,51.931999999999995,-8.5677,Cork City,2004,129,Theft
Blessington,53.1703,-6.5337,Wicklow,2004,123,Theft
Boherbue,52.159,-9.0698,Cork West,2004,10,Theft
Bonniconlon,54.1096,-9.029,Mayo,2004,3,Theft
Borris,52.6018,-6.9293,Kilkenny/Carlow,2004,10,Theft
Borris-In-Ossory,52.9393,-7.6288,Laois/Offaly,2004,13,Theft
Borrisokane,52.9971,-8.127,Tipperary,2004,14,Theft
Borrisoleigh,52.7515,-7.9554,Tipperary,2004,8,Theft
Bothar Na Tra,53.2588,-9.0797,Galway,2004,191,Theft
Boyle,53.9734,-8.3004,Roscommon/Longford,2004,40,Theft
Bray,53.1987,-6.1006,Wicklow,2004,531,Theft
Bridewell Cork,51.9005,-8.477,Cork City,2004,531,Theft
Bridewell Dublin,53.3471,-6.2741,D.M.R. North Central,2004,1111,Theft
Bruff,52.4773,-8.547,Limerick,2004,13,Theft
Bruree,52.4232,-8.6503,Limerick,2004,4,Theft
Bunclody,52.6568,-6.6625,Wexford,2004,49,Theft
Buncrana,55.1313,-7.4507,Donegal,2004,65,Theft
Bundoran,54.4766,-8.2793,Donegal,2004,51,Theft
Burnfoot,55.0547,-7.4016,Donegal,2004,59,Theft
Buttevant,52.2293,-8.6713,Cork North,2004,18,Theft
Cabinteely,53.2608,-6.1507,D.M.R. Eastern,2004,391,Theft
Cabra,53.365,-6.3076,D.M.R. Western,2004,489,Theft
Caherciveen,51.946999999999996,-10.2198,Kerry,2004,15,Theft
Caherconlish,52.5938,-8.4695,Limerick,2004,19,Theft
Cahir,52.376000000000005,-7.9203,Tipperary,2004,62,Theft
Callan,52.5424,-7.391,Kilkenny/Carlow,2004,32,Theft
Campile,52.2878,-6.9396,Wexford,2004,17,Theft
Cappamore,52.6147,-8.3385,Limerick,2004,18,Theft
Cappawhite,52.5832,-8.1648,Tipperary,2004,21,Theft
Cappoquin,52.1459,-7.8457,Waterford,2004,12,Theft
Carbury,53.3385,-6.9367,Kildare,2004,19,Theft
Carlingford,54.0412,-6.1872,Louth,2004,43,Theft
Carlow,52.8405,-6.9293,Kilkenny/Carlow,2004,486,Theft
Carna,53.3236,-9.8241,Galway,2004,5,Theft
Carndonagh,55.2535,-7.2595,Donegal,2004,26,Theft
Carnew,52.7105,-6.4918,Wicklow,2004,18,Theft
Carraig Airt,55.1751,-7.7985,Donegal,2004,12,Theft
Carrickbyrne,52.3624,-6.7597,Wexford,2004,21,Theft
Carrickmacross,53.9761,-6.7188,Cavan/Monaghan,2004,93,Theft
Carrick-on-Bannow,52.2381,-6.734,Wexford,2004,27,Theft
Carrick-On-Shannon,53.9443,-8.0902,Sligo/Leitrim,2004,80,Theft
Carrick-On-Suir,52.3482,-7.4099,Tipperary,2004,47,Theft
Carrigaline,51.8148,-8.3915,Cork City,2004,75,Theft
Carrigallen,53.9756,-7.6467,Sligo/Leitrim,2004,7,Theft
Carrigans,54.9512,-7.4268,Donegal,2004,25,Theft
Carrigtwohill,51.9095,-8.2618,Cork North,2004,22,Theft
Cashel,52.5163,-7.8903,Tipperary,2004,91,Theft
Castlebar,53.8534,-9.2976,Mayo,2004,307,Theft
Castlebellingham,53.8993,-6.3899,Louth,2004,45,Theft
Castleblayney,54.1179,-6.735,Cavan/Monaghan,2004,76,Theft
Castlebridge,52.3847,-6.4526,Wexford,2004,5,Theft
Castlecomer,52.7993,-7.2095,Kilkenny/Carlow,2004,37,Theft
Castleconnell,52.7134,-8.4985,Limerick,2004,57,Theft
Castledermot,52.9092,-6.8492,Kildare,2004,43,Theft
Castlefin,54.8027,-7.5952,Donegal,2004,22,Theft
Castlegregory,52.2542,-10.0206,Kerry,2004,9,Theft
Castleisland,52.2304,-9.4628,Kerry,2004,54,Theft
Castlemaine,52.1702,-9.7006,Kerry,2004,8,Theft
Castlepollard,53.6785,-7.2966,Westmeath,2004,43,Theft
Castlerea,53.7666,-8.4841,Roscommon/Longford,2004,33,Theft
Castletownbere,51.6495,-9.9147,Cork West,2004,19,Theft
Castletownroche,52.1707,-8.468,Cork North,2004,12,Theft
Cavan,53.9933,-7.3609,Cavan/Monaghan,2004,251,Theft
Celbridge,53.343999999999994,-6.5417,Kildare,2004,181,Theft
Charlestown,53.9627,-8.7935,Mayo,2004,18,Theft
Charleville,52.3561,-8.6826,Cork North,2004,42,Theft
Cill Ronain,53.1213,-9.6678,Galway,2004,3,Theft
Clane,53.2937,-6.6859,Kildare,2004,132,Theft
Clara,53.3454,-7.6141,Laois/Offaly,2004,31,Theft
Claremorris,53.7236,-8.9851,Mayo,2004,40,Theft
Clifden,53.4882,-10.0092,Galway,2004,36,Theft
Cloch na Ron,53.3936,-9.9211,Galway,2004,5,Theft
Cloghan,53.2248,-7.8775,Laois/Offaly,2004,18,Theft
Clogheen,52.2769,-7.9953,Tipperary,2004,9,Theft
Clogher,54.8368,-8.4275,Donegal,2004,7,Theft
Clogherhead,53.7904,-6.2427,Louth,2004,39,Theft
Clonakilty,51.6249,-8.8889,Cork West,2004,121,Theft
Clonark,53.3684,-8.0347,Roscommon/Longford,2004,14,Theft
Clonaslee,53.1486,-7.526,Laois/Offaly,2004,5,Theft
Clonbologue,53.2591,-7.0858,Laois/Offaly,2004,10,Theft
Clondalkin,53.3231,-6.395,D.M.R. Western,2004,897,Theft
Clones,54.1775,-7.2282,Cavan/Monaghan,2004,38,Theft
Clonmany,55.263000000000005,-7.4128,Donegal,2004,11,Theft
Clonmel,52.3541,-7.6999,Tipperary,2004,248,Theft
Clonroche,52.4504,-6.7159,Wexford,2004,25,Theft
Clontarf,53.3635,-6.2201,D.M.R. Northern,2004,822,Theft
Cloughjordan,52.942,-8.0397,Tipperary,2004,7,Theft
Cloyne,51.8628,-8.1235,Cork North,2004,11,Theft
Coachford,51.9091,-8.7911,Cork West,2004,13,Theft
Cobh,51.8482,-8.3036,Cork North,2004,84,Theft
Collon,53.7779,-6.4849,Louth,2004,12,Theft
Collooney,54.1855,-8.4879,Sligo/Leitrim,2004,24,Theft
Cong,53.5415,-9.2865,Mayo,2004,20,Theft
Convoy,54.8593,-7.669,Donegal,2004,15,Theft
Coolaney,54.1724,-8.6034,Sligo/Leitrim,2004,8,Theft
Coolock,53.3903,-6.2011,D.M.R. Northern,2004,903,Theft
Cootehill,54.0747,-7.0787,Cavan/Monaghan,2004,42,Theft
Corofin,52.9475,-9.0686,Clare,2004,5,Theft
Corofin,53.4376,-8.8631,Galway,2004,4,Theft
Courtown Harbour,52.6443,-6.2305,Wexford,2004,53,Theft
Craughwell,53.2294,-8.7339,Galway,2004,32,Theft
Creggs,53.5949,-8.3638,Galway,2004,1,Theft
Crookstown,51.8587,-8.8013,Cork West,2004,19,Theft
Croom,52.522,-8.7188,Limerick,2004,24,Theft
Crosshaven,51.803999999999995,-8.3045,Cork City,2004,20,Theft
Crossmolina,54.0998,-9.3227,Mayo,2004,10,Theft
Crumlin,53.3196,-6.315,D.M.R. Southern,2004,627,Theft
Crusheen,52.9385,-8.8986,Clare,2004,5,Theft
Daingean,53.293,-7.2936,Laois/Offaly,2004,26,Theft
Delvin,53.6145,-7.0901,Westmeath,2004,16,Theft
Dingle,52.1392,-10.2705,Kerry,2004,10,Theft
Dolla,52.7971,-8.1921,Tipperary,2004,5,Theft
Donegal Town,54.6524,-8.1111,Donegal,2004,56,Theft
Doneraile,52.2157,-8.5854,Cork North,2004,13,Theft
Donnybrook,53.3217,-6.2359,D.M.R. South Central,2004,865,Theft
Douglas,51.8751,-8.431000000000001,Cork City,2004,272,Theft
Dowra,54.1904,-8.0153,Cavan/Monaghan,2004,2,Theft
Drimoleague,51.659,-9.264,Cork West,2004,13,Theft
Drinagh,51.6477,-9.1545,Cork West,2004,1,Theft
Drogheda,53.7151,-6.3566,Louth,2004,618,Theft
Drumad,54.0957,-6.3608,Louth,2004,63,Theft
Drumcollogher,52.3382,-8.9113,Limerick,2004,10,Theft
Drumlish,53.8217,-7.7659,Roscommon/Longford,2004,12,Theft
Drumshambo,54.0465,-8.04,Sligo/Leitrim,2004,24,Theft
Dublin Airport,53.4299,-6.2455,D.M.R. Northern,2004,259,Theft
Duleek,53.6539,-6.4181,Meath,2004,53,Theft
Dun Fionnachaid,55.1829,-7.9744,Donegal,2004,14,Theft
Dun Laoghaire,53.2899,-6.1333,D.M.R. Eastern,2004,865,Theft
Dunboyne,53.4211,-6.4771,Meath,2004,116,Theft
Duncannon,52.2214,-6.9298,Wexford,2004,29,Theft
Dundalk,53.9995,-6.4097,Louth,2004,774,Theft
Dundrum,53.2895,-6.2426,D.M.R. Eastern,2004,836,Theft
Dungarvan,52.0877,-7.6245,Waterford,2004,253,Theft
Dunlavin,53.0588,-6.7011,Wicklow,2004,46,Theft
Dunleer,53.8285,-6.3946,Louth,2004,34,Theft
Dunmanway,51.7228,-9.1101,Cork West,2004,22,Theft
Dunmore East,52.1484,-6.9929,Waterford,2004,8,Theft
Dunmore,53.6176,-8.7406,Galway,2004,8,Theft
Dunshaughlin,53.5108,-6.5393,Meath,2004,76,Theft
Durrow,52.8443,-7.3961,Laois/Offaly,2004,33,Theft
Durrus,51.6205,-9.524,Cork West,2004,4,Theft
Edenderry,53.3368,-7.0608,Laois/Offaly,2004,82,Theft
Edgeworthstown,53.6956,-7.606,Roscommon/Longford,2004,34,Theft
Elphin,53.8458,-8.1925,Roscommon/Longford,2004,14,Theft
Emly,52.4651,-8.3542,Tipperary,2004,4,Theft
Emyvale,54.3394,-6.9576,Cavan/Monaghan,2004,24,Theft
Enfield,53.4151,-6.8339,Meath,2004,74,Theft
Ennis,52.8469,-8.9811,Clare,2004,544,Theft
Enniscorthy,52.5007,-6.5707,Wexford,2004,155,Theft
Enniscrone,54.2138,-9.0885,Sligo/Leitrim,2004,21,Theft
Enniskerry,53.1913,-6.1695,Wicklow,2004,67,Theft
Ennistymon,52.9374,-9.2885,Clare,2004,49,Theft
Eyrecourt,53.1994,-8.1324,Galway,2004,6,Theft
Farranfore,52.1714,-9.5497,Kerry,2004,5,Theft
Ferbane,53.2708,-7.8276,Laois/Offaly,2004,20,Theft
Fermoy,52.1385,-8.2742,Cork North,2004,79,Theft
Ferns,52.591,-6.4978,Wexford,2004,16,Theft
Ferrybank,52.2675,-7.1011,Waterford,2004,37,Theft
Fethard,52.4664,-7.6944,Tipperary,2004,18,Theft
Finglas,53.3896,-6.3068,D.M.R. Western,2004,824,Theft
Fitzgibbon Street,53.3577,-6.2554,D.M.R. North Central,2004,976,Theft
Foxford,53.9833,-9.1084,Mayo,2004,19,Theft
Foynes,52.6097,-9.1037,Limerick,2004,13,Theft
Frenchpark,53.8692,-8.4056,Roscommon/Longford,2004,88,Theft
Freshford,52.7324,-7.3944,Kilkenny/Carlow,2004,4,Theft
Gaillimh,53.2713,-9.0583,Galway,2004,1273,Theft
Garristown,53.5671,-6.3839,D.M.R. Northern,2004,30,Theft
Glanmire,51.9184,-8.3968,Cork City,2004,126,Theft
Glantaine,52.1047,-8.7488,Cork North,2004,10,Theft
Glasson,53.4717,-7.8635,Westmeath,2004,18,Theft
Gleann na Muaidhe,54.2408,-9.6788,Mayo,2004,1,Theft
Glenamaddy,53.6074,-8.5602,Galway,2004,6,Theft
Glenbeigh,52.0571,-9.9371,Kerry,2004,6,Theft
Glengarriff,51.7506,-9.5507,Cork West,2004,12,Theft
Glenmore,52.3538,-7.028,Kilkenny/Carlow,2004,5,Theft
Glin,52.5696,-9.2845,Limerick,2004,2,Theft
Glynn,52.3728,-6.5829,Wexford,2004,7,Theft
Gob an Choire,53.9337,-9.9185,Mayo,2004,3,Theft
Golden,52.4968,-7.9847,Tipperary,2004,4,Theft
Goresbridge,52.63,-6.9944,Kilkenny/Carlow,2004,14,Theft
Gorey,52.675,-6.2973,Wexford,2004,140,Theft
Gort,53.0674,-8.8182,Galway,2004,53,Theft
Graiguenamanagh,52.5425,-6.9568,Kilkenny/Carlow,2004,14,Theft
Granard,53.7786,-7.4942,Roscommon/Longford,2004,46,Theft
Grange,54.3934,-8.5207,Sligo/Leitrim,2004,23,Theft
Greystones,53.148,-6.0632,Wicklow,2004,259,Theft
Gurranabraher,51.9034,-8.4966,Cork City,2004,404,Theft
Gurteen,53.993,-8.5158,Sligo/Leitrim,2004,13,Theft
Hackballscross,54.0316,-6.5242,Louth,2004,18,Theft
Hacketstown,52.8643,-6.557,Kilkenny/Carlow,2004,16,Theft
Headford,53.4703,-9.0983,Galway,2004,17,Theft
Henry Street,52.6617,-8.6316,Limerick,2004,1430,Theft
Holycross,52.6426,-7.8729,Tipperary,2004,3,Theft
Hospital Co Limerick,52.4752,-8.4325,Limerick,2004,13,Theft
Howth,53.3873,-6.069,D.M.R. Northern,2004,336,Theft
Indreabhan,53.2406,-9.4296,Galway,2004,7,Theft
Innishannon,51.7644,-8.6554,Cork West,2004,7,Theft
Irishtown,53.3382,-6.2233,D.M.R. South Central,2004,595,Theft
Kanturk,52.1759,-8.9126,Cork West,2004,37,Theft
Keadue,54.0506,-8.1373,Roscommon/Longford,2004,3,Theft
Kealkil,51.755,-9.3753,Cork West,2004,7,Theft
Keel,53.9754,-10.0822,Mayo,2004,1,Theft
Kells Ceanannus Mor,53.7284,-6.8812,Meath,2004,106,Theft
Kenagh,53.622,-7.8151,Roscommon/Longford,2004,12,Theft
Kenmare,51.8785,-9.5816,Kerry,2004,30,Theft
Kerrykeel,55.1371,-7.6663,Donegal,2004,12,Theft
Kevin Street,53.339,-6.2702,D.M.R. South Central,2004,979,Theft
Kilbeggan,53.3685,-7.4992,Westmeath,2004,46,Theft
Kilbrittain,51.6735,-8.6901,Cork West,2004,1,Theft
Kilcock,53.4038,-6.6725,Kildare,2004,78,Theft
Kilconnell,53.3314,-8.4017,Galway,2004,5,Theft
Kilcormac,53.1762,-7.7288,Laois/Offaly,2004,13,Theft
Kilcullen,53.1291,-6.7466,Kildare,2004,70,Theft
Kildare,53.156000000000006,-6.9073,Kildare,2004,128,Theft
Kildorrery,52.2454,-8.4296,Cork North,2004,13,Theft
Kildysart,52.6746,-9.1058,Clare,2004,1,Theft
Kilkee,52.6824,-9.6447,Clare,2004,26,Theft
Kilkelly,53.8734,-8.8434,Mayo,2004,3,Theft
Kilkenny,52.6524,-7.2597,Kilkenny/Carlow,2004,492,Theft
Kill Co Waterford,52.1773,-7.3351,Waterford,2004,11,Theft
Killala,54.2141,-9.2205,Mayo,2004,14,Theft
Killaloe,52.8067,-8.4437,Clare,2004,87,Theft
Killarney,52.0624,-9.5124,Kerry,2004,230,Theft
Killeagh,51.9398,-7.995,Cork North,2004,16,Theft
Killenaule,52.5685,-7.6728,Tipperary,2004,28,Theft
Killeshandra,54.0118,-7.5259,Cavan/Monaghan,2004,6,Theft
Killimor,53.1659,-8.2942,Galway,2004,10,Theft
Killorglin,52.1065,-9.7871,Kerry,2004,29,Theft
Killucan,53.5147,-7.1397,Westmeath,2004,17,Theft
Kilmacow,52.3146,-7.1748,Kilkenny/Carlow,2004,5,Theft
Kilmacrennan,55.0295,-7.7785,Donegal,2004,9,Theft
Kilmacthomas,52.2062,-7.4213,Waterford,2004,16,Theft
Kilmaine,53.5826,-9.1238,Mayo,2004,6,Theft
Kilmainham,53.3419,-6.3043,D.M.R. South Central,2004,867,Theft
Kilmallock,52.3984,-8.5758,Limerick,2004,18,Theft
Kilmeaden,52.2462,-7.245,Waterford,2004,11,Theft
Kilmoganny,52.4609,-7.3293,Kilkenny/Carlow,2004,2,Theft
Kilmore Quay,52.1787,-6.5837,Wexford,2004,23,Theft
Kilnaleck,53.8585,-7.3179,Cavan/Monaghan,2004,23,Theft
Kilrickle,53.2302,-8.4524,Galway,2004,14,Theft
Kilrush,52.6411,-9.4811,Clare,2004,20,Theft
Kilsheelan,52.3615,-7.5798,Tipperary,2004,2,Theft
Kiltimagh,53.8461,-9.0058,Mayo,2004,35,Theft
Kiltormer,53.2376,-8.2713,Galway,2004,4,Theft
Kilworth,52.1763,-8.2496,Cork North,2004,5,Theft
Kingscourt,53.9043,-6.8068,Cavan/Monaghan,2004,34,Theft
Kinlough,54.4458,-8.287,Sligo/Leitrim,2004,17,Theft
Kinnegad,53.4559,-7.1028,Westmeath,2004,88,Theft
Kinnitty,53.0984,-7.7221,Laois/Offaly,2004,8,Theft
Kinsale,51.7063,-8.5255,Cork West,2004,102,Theft
Kinvara,53.1405,-8.9397,Galway,2004,12,Theft
Knock,53.7954,-8.9188,Mayo,2004,9,Theft
Knocknagoshel,52.3307,-9.3853,Kerry,2004,6,Theft
Lanesboro,53.67100000000001,-7.9853,Roscommon/Longford,2004,29,Theft
Laytown,53.6892,-6.244,Meath,2004,116,Theft
Leach Seoirse,53.3571,-8.9313,Galway,2004,49,Theft
Leamybrien,52.1693,-7.5216,Waterford,2004,23,Theft
Leitir Mor,53.2943,-9.6551,Galway,2004,1,Theft
Leixlip,53.3674,-6.4982,Kildare,2004,184,Theft
Letterfrack,53.5542,-9.9477,Galway,2004,11,Theft
Letterkenny,54.9547,-7.7364,Donegal,2004,403,Theft
Lifford,54.8328,-7.4803,Donegal,2004,24,Theft
Liscarroll,52.2596,-8.8063,Cork North,2004,6,Theft
Lisdoonvarna,53.0286,-9.2897,Clare,2004,19,Theft
Lismore,52.1367,-7.9355,Waterford,2004,22,Theft
Lissycasey,52.7461,-9.1544,Clare,2004,7,Theft
Listowel,52.4471,-9.4839,Kerry,2004,77,Theft
Littleton,52.6407,-7.7349,Tipperary,2004,8,Theft
Lixnaw,52.4041,-9.6166,Kerry,2004,5,Theft
Longford,53.7325,-7.8014,Roscommon/Longford,2004,315,Theft
Longwood,53.4546,-6.9270000000000005,Meath,2004,3,Theft
Lorrha,53.0937,-8.1221,Tipperary,2004,5,Theft
Loughrea,53.1974,-8.5699,Galway,2004,150,Theft
Louisburgh,53.7646,-9.8076,Mayo,2004,12,Theft
Louth,53.9524,-6.5379,Louth,2004,15,Theft
Lucan,53.3561,-6.4507,D.M.R. Western,2004,698,Theft
Lusk,53.5234,-6.1673,D.M.R. Northern,2004,95,Theft
Macroom,51.9063,-8.964,Cork West,2004,64,Theft
Maigh Cuilinn,53.3383,-9.1812,Galway,2004,12,Theft
Malahide,53.4512,-6.1519,D.M.R. Northern,2004,426,Theft
Mallow,52.1388,-8.6459,Cork North,2004,134,Theft
Manorhamilton,54.3044,-8.1785,Sligo/Leitrim,2004,38,Theft
Mayfield,51.9097,-8.429,Cork City,2004,187,Theft
Maynooth,53.3808,-6.5927,Kildare,2004,263,Theft
Mayorstone Park,52.6737,-8.6448,Limerick,2004,631,Theft
Midleton,51.9167,-8.1735,Cork North,2004,155,Theft
Milford Co Cork,52.3425,-8.8564,Cork North,2004,5,Theft
Milford,55.086999999999996,-7.6982,Donegal,2004,13,Theft
Millstreet Co. Cork,52.0601,-9.0615,Cork West,2004,32,Theft
Milltown,53.6116,-8.8975,Galway,2004,7,Theft
Miltown Malbay,52.8575,-9.4006,Clare,2004,27,Theft
Mitchelstown,52.2636,-8.2706,Cork North,2004,56,Theft
Moate,53.3957,-7.7345,Westmeath,2004,39,Theft
Mohill,53.9208,-7.8681,Sligo/Leitrim,2004,38,Theft
Monaghan,54.2514,-6.9675,Cavan/Monaghan,2004,155,Theft
Monasterevin,53.1382,-7.0547,Kildare,2004,38,Theft
Moneygall,52.8813,-7.9534,Tipperary,2004,4,Theft
Monivea,53.373999999999995,-8.7023,Galway,2004,2,Theft
Mooncoin,52.292,-7.2516,Kilkenny/Carlow,2004,15,Theft
Mountbellew,53.4712,-8.5001,Galway,2004,28,Theft
Mountcharles,54.6459,-8.1957,Donegal,2004,7,Theft
Mountjoy,53.3605,-6.2668,D.M.R. North Central,2004,1005,Theft
Mountmellick,53.1188,-7.3351,Laois/Offaly,2004,39,Theft
Mountrath,52.9982,-7.4781,Laois/Offaly,2004,31,Theft
Moville,55.1916,-7.0286,Donegal,2004,29,Theft
Moylough,53.4877,-8.567,Galway,2004,6,Theft
Moyne,52.7343,-7.7141,Tipperary,2004,4,Theft
Muff,55.0686,-7.2688,Donegal,2004,48,Theft
Muine Bheag,52.7013,-6.9574,Kilkenny/Carlow,2004,55,Theft
Mullagh,53.8111,-6.9432,Cavan/Monaghan,2004,24,Theft
Mullinahone,52.5102,-7.5056,Tipperary,2004,7,Theft
Mullinavat,52.3664,-7.1721,Kilkenny/Carlow,2004,15,Theft
Mullingar,53.5257,-7.346,Westmeath,2004,444,Theft
Multyfarnham,53.6242,-7.3923,Westmeath,2004,22,Theft
Murroe,52.6497,-8.3992,Limerick,2004,14,Theft
Myshall,52.6875,-6.7784,Kilkenny/Carlow,2004,5,Theft
Na Cealla Beaga,54.6366,-8.4444,Donegal,2004,18,Theft
Na Gleannta,54.7955,-8.281,Donegal,2004,8,Theft
Naas,53.2107,-6.666,Kildare,2004,583,Theft
Navan,53.6545,-6.6904,Meath,2004,489,Theft
Nenagh,52.8643,-8.1996,Tipperary,2004,131,Theft
New Ross,52.3876,-6.9508,Wexford,2004,136,Theft
Newbridge,53.1814,-6.7955,Kildare,2004,283,Theft
Newcastle West,52.4537,-9.0624,Limerick,2004,104,Theft
Newmarket,52.2146,-8.997,Cork West,2004,30,Theft
Newmarket on Fergus,52.7632,-8.8991,Clare,2004,9,Theft
Newport Co Mayo,53.8902,-9.5467,Mayo,2004,19,Theft
Newport Co Tipperary,52.7107,-8.4063,Tipperary,2004,31,Theft
Newtowncunningham,54.9976,-7.5078,Donegal,2004,22,Theft
Newtownmountkennedy,53.0969,-6.1094,Wicklow,2004,41,Theft
Nobber,53.821000000000005,-6.7466,Meath,2004,15,Theft
Oldcastle,53.7693,-7.1619,Meath,2004,31,Theft
Omeath,54.0865,-6.2563,Louth,2004,28,Theft
Oola,52.53,-8.2597,Limerick,2004,3,Theft
Oughterard,53.4274,-9.3245,Galway,2004,16,Theft
Oulart,52.5033,-6.3913,Wexford,2004,9,Theft
Oylegate,52.4241,-6.5296,Wexford,2004,4,Theft
Pallasgreen,52.5687,-8.3382,Limerick,2004,19,Theft
Pallaskenry,52.6405,-8.8665,Limerick,2004,14,Theft
Partry,53.6987,-9.2796,Mayo,2004,8,Theft
Passage East,52.2392,-6.9728,Waterford,2004,7,Theft
Passage West,51.8652,-8.3317,Cork City,2004,35,Theft
Patrickswell,52.5958,-8.7129,Limerick,2004,24,Theft
Pearse Street,53.3457,-6.2563,D.M.R. South Central,2004,4441,Theft
Pettigo,54.5482,-7.8349,Donegal,2004,4,Theft
Piltown,52.3498,-7.3255,Kilkenny/Carlow,2004,10,Theft
Portarlington,53.1592,-7.1878,Laois/Offaly,2004,82,Theft
Portlaoise,53.0317,-7.3031,Laois/Offaly,2004,398,Theft
Portlaw,52.2863,-7.3176,Waterford,2004,8,Theft
Portmagee,51.8852,-10.3618,Kerry,2004,4,Theft
Portroe,52.8819,-8.3537,Tipperary,2004,4,Theft
Portumna,53.09,-8.2204,Galway,2004,44,Theft
Raheny,53.379,-6.178,D.M.R. Northern,2004,396,Theft
Ramelton,55.0367,-7.6507,Donegal,2004,8,Theft
Raphoe,54.8744,-7.5944,Donegal,2004,31,Theft
Rathangan,53.2221,-6.9975,Kildare,2004,36,Theft
Rathcoole,53.2818,-6.4647,D.M.R. Western,2004,295,Theft
Rathcormac Co Cork,52.0761,-8.2843,Cork North,2004,22,Theft
Rathdowney,52.8567,-7.5978,Laois/Offaly,2004,15,Theft
Rathdrum,52.931000000000004,-6.2265,Wicklow,2004,68,Theft
Rathfarnham,53.2974,-6.2881,D.M.R. Southern,2004,1108,Theft
Rathgormack,52.3075,-7.5038,Waterford,2004,5,Theft
Rathkeale,52.5234,-8.939,Limerick,2004,23,Theft
Rathmines,53.3213,-6.267,D.M.R. Southern,2004,845,Theft
Rathmore Co Kerry,52.0843,-9.2142,Kerry,2004,14,Theft
Rathmullen,55.0958,-7.5326,Donegal,2004,4,Theft
Rathvilly,52.8804,-6.6954,Kilkenny/Carlow,2004,11,Theft
Rhode,53.3511,-7.1948,Laois/Offaly,2004,13,Theft
Riverstown,54.1296,-8.4,Sligo/Leitrim,2004,9,Theft
Robertstown,53.2702,-6.8164,Kildare,2004,31,Theft
Rochfortbridge,53.4133,-7.3018,Westmeath,2004,29,Theft
Rockcorry,54.1202,-7.0094,Cavan/Monaghan,2004,1,Theft
Ronanstown,53.3379,-6.406000000000001,D.M.R. Western,2004,915,Theft
Roosky,53.8329,-7.9228,Roscommon/Longford,2004,15,Theft
Ros Muc,53.3864,-9.6099,Galway,2004,3,Theft
Roscommon,53.6298,-8.1936,Roscommon/Longford,2004,125,Theft
Roscrea,52.9562,-7.7988,Tipperary,2004,110,Theft
Rosscarbery,51.5776,-9.0315,Cork West,2004,17,Theft
Rosses Point,54.3054,-8.5465,Sligo/Leitrim,2004,15,Theft
Rosslare Harbour,52.2487,-6.3341,Wexford,2004,37,Theft
Rosslare Strand,52.2696,-6.3848,Wexford,2004,16,Theft
Roundwood,53.063,-6.2247,Wicklow,2004,87,Theft
Roxboro Road,52.6508,-8.615,Limerick,2004,771,Theft
Santry,53.3897,-6.2516,D.M.R. Northern,2004,962,Theft
Scariff,52.9068,-8.5348,Clare,2004,35,Theft
Schull,51.5287,-9.5414,Cork West,2004,12,Theft
Scotstown,54.2803,-7.0636,Cavan/Monaghan,2004,10,Theft
Shankill,53.2335,-6.121,D.M.R. Eastern,2004,334,Theft
Shannon,52.7079,-8.8772,Clare,2004,137,Theft
Shercock,53.9922,-6.9008,Cavan/Monaghan,2004,12,Theft
Shevry,52.6869,-8.0471,Tipperary,2004,4,Theft
Shillelagh,52.7546,-6.5375,Wicklow,2004,12,Theft
Shinrone,52.9847,-7.9341,Laois/Offaly,2004,12,Theft
Shrule,53.5199,-9.0876,Mayo,2004,9,Theft
Sixmilebridge,52.7401,-8.7779,Clare,2004,44,Theft
Skerries,53.5796,-6.107,D.M.R. Northern,2004,80,Theft
Skibbereen,51.5486,-9.2641,Cork West,2004,45,Theft
Skreen,54.2446,-8.7204,Sligo/Leitrim,2004,9,Theft
Slane,53.7097,-6.5475,Meath,2004,58,Theft
Sligo,54.2693,-8.4713,Sligo/Leitrim,2004,541,Theft
Smear,53.8606,-7.6017,Roscommon/Longford,2004,9,Theft
Sneem,51.8389,-9.904,Kerry,2004,12,Theft
Sraith Salach,53.4653,-9.7214,Galway,2004,8,Theft
Stoneyford,52.5364,-7.2286,Kilkenny/Carlow,2004,17,Theft
Store Street,53.3505,-6.2522,D.M.R. North Central,2004,4575,Theft
Stradbally Co Laois,53.0177,-7.1516,Laois/Offaly,2004,16,Theft
Strokestown,53.7808,-8.1038,Roscommon/Longford,2004,8,Theft
Stuake,51.9905,-8.7604,Cork West,2004,7,Theft
Summerhill,53.482,-6.7334,Meath,2004,25,Theft
Sundrive Road,53.3302,-6.2987,D.M.R. Southern,2004,618,Theft
Swanlinbar,54.1961,-7.7038,Cavan/Monaghan,2004,7,Theft
Swinford,53.9406,-8.9522,Mayo,2004,17,Theft
Swords,53.456,-6.2211,D.M.R. Northern,2004,802,Theft
Taghmon,52.321999999999996,-6.6517,Wexford,2004,24,Theft
Tallaght,53.2868,-6.3678,D.M.R. Southern,2004,2500,Theft
Tallow,52.0937,-8.0073,Waterford,2004,7,Theft
Tarbert,52.5727,-9.3754,Kerry,2004,4,Theft
Tarelton,51.8385,-8.9929,Cork West,2004,8,Theft
Taughmaconnell,53.4032,-8.141,Roscommon/Longford,2004,2,Theft
Templederry,52.7741,-8.075,Tipperary,2004,0,Theft
Templemore,52.7966,-7.8351,Tipperary,2004,47,Theft
Templetuohy,52.7903,-7.7201,Tipperary,2004,5,Theft
Terenure,53.3098,-6.287999999999999,D.M.R. Southern,2004,471,Theft
Thomastown,52.528999999999996,-7.14,Kilkenny/Carlow,2004,24,Theft
Thurles,52.6757,-7.8119,Tipperary,2004,189,Theft
Timoleague,51.6427,-8.7663,Cork West,2004,3,Theft
Tinahely,52.7967,-6.4693,Wicklow,2004,11,Theft
Tipperary,52.4761,-8.1629,Tipperary,2004,104,Theft
Togher,51.8764,-8.4863,Cork City,2004,242,Theft
Toomevara,52.8497,-8.0365,Tipperary,2004,12,Theft
Tralee,52.2695,-9.7088,Kerry,2004,465,Theft
Tramore,52.1615,-7.1534,Waterford,2004,141,Theft
Trim,53.5531,-6.7893,Meath,2004,135,Theft
Tuam,53.5157,-8.8559,Galway,2004,115,Theft
Tubbercurry,54.0516,-8.7343,Sligo/Leitrim,2004,11,Theft
Tulla,52.8654,-8.7548,Clare,2004,19,Theft
Tullamore,53.2761,-7.4949,Laois/Offaly,2004,327,Theft
Tullow,52.8038,-6.7334,Kilkenny/Carlow,2004,70,Theft
Tulsk,53.7774,-8.2518,Roscommon/Longford,2004,4,Theft
Urlingford,52.7221,-7.5798,Kilkenny/Carlow,2004,29,Theft
Virginia,53.8344,-7.0819,Cavan/Monaghan,2004,30,Theft
Watercourse Road,51.9071,-8.4745,Cork City,2004,689,Theft
Waterford,52.2602,-7.1137,Waterford,2004,1252,Theft
Watergrasshill,52.0134,-8.342,Cork North,2004,9,Theft
Westport,53.7991,-9.5194,Mayo,2004,68,Theft
Wexford,52.3355,-6.462000000000001,Wexford,2004,433,Theft
Whitegate,51.8271,-8.2278,Cork North,2004,14,Theft
Wicklow,52.9814,-6.0426,Wicklow,2004,207,Theft
Williamstown,53.6771,-8.5784,Galway,2004,14,Theft
Woodford,53.0476,-8.4001,Galway,2004,1,Theft
Youghal,51.9481,-7.8428,Cork North,2004,121,Theft
Abbeyfeale,52.3873,-9.29,Limerick,2005,28,Theft
Abbeyleix,52.9127,-7.3438,Laois/Offaly,2005,69,Theft
Adare,52.5639,-8.7921,Limerick,2005,17,Theft
Aglish,52.0716,-7.8221,Waterford,2005,1,Theft
Ahascragh,53.3957,-8.3306,Galway,2005,5,Theft
Ailt an Chorrain,54.9849,-8.4386,Donegal,2005,8,Theft
An Bun Beag,55.0656,-8.2895,Donegal,2005,24,Theft
An Charraig,54.6579,-8.6331,Donegal,2005,8,Theft
An Cheathru Rua,53.2645,-9.6005,Galway,2005,11,Theft
An Clochan Liath,54.9516,-8.3613,Donegal,2005,16,Theft
An Coirean,51.8311,-10.1742,Kerry,2005,10,Theft
An Craoslach,55.1253,-7.9126,Donegal,2005,4,Theft
An Fál Carrach,55.137,-8.102,Donegal,2005,22,Theft
An Maim,53.5107,-9.5649,Galway,2005,11,Theft
An Rinn,52.0484,-7.5931,Waterford,2005,9,Theft
An Spideal,53.2454,-9.3056,Galway,2005,18,Theft
Anglesea Street,51.8958,-8.465,Cork City,2005,1649,Theft
Annascaul,52.1524,-10.0525,Kerry,2005,4,Theft
Aran Mor,53.2721,-8.9319,Galway,2005,129,Theft
Ard An Rátha,54.7645,-8.4095,Donegal,2005,8,Theft
Ardee,53.8549,-6.5411,Louth,2005,85,Theft
Ardfert,52.3235,-9.7789,Kerry,2005,22,Theft
Ardfinnan,52.3118,-7.8783,Tipperary,2005,10,Theft
Ardmore,51.951,-7.7282,Waterford,2005,20,Theft
Ardnacrusha,52.7077,-8.6131,Limerick,2005,83,Theft
Ardrahan,53.1566,-8.8065,Galway,2005,13,Theft
Arklow,52.7963,-6.1546,Wicklow,2005,169,Theft
Arles,52.891000000000005,-7.0189,Laois/Offaly,2005,15,Theft
Arva,53.9254,-7.5838,Cavan/Monaghan,2005,7,Theft
Ashbourne,53.5114,-6.397,Meath,2005,202,Theft
Ashford,53.0139,-6.1073,Wicklow,2005,55,Theft
Askeaton,52.6006,-8.9712,Limerick,2005,21,Theft
Athea,52.4599,-9.2875,Limerick,2005,2,Theft
Athenry,53.2997,-8.7497,Galway,2005,40,Theft
Athleague,53.5687,-8.2524,Roscommon/Longford,2005,11,Theft
Athlone,53.4233,-7.9447,Westmeath,2005,476,Theft
Athy,52.9902,-6.9882,Kildare,2005,141,Theft
Aughrim,52.856,-6.3268,Wicklow,2005,16,Theft
Avoca,52.8588,-6.2129,Wicklow,2005,9,Theft
Baile Atha Bui,53.6236,-6.9159,Meath,2005,33,Theft
Baile an Fheirtéaraigh,52.1659,-10.4062,Kerry,2005,0,Theft
Baile Bhuirne,51.9458,-9.1692,Cork West,2005,5,Theft
Bailieboro,53.9152,-6.9696,Cavan/Monaghan,2005,45,Theft
Balbriggan,53.6143,-6.1912,D.M.R. Northern,2005,266,Theft
Balla,53.8019,-9.1299,Mayo,2005,21,Theft
Ballaghderreen,53.8999,-8.5846,Roscommon/Longford,2005,30,Theft
Ballina,54.1129,-9.1604,Mayo,2005,128,Theft
Ballinagh,53.9311,-7.4096,Cavan/Monaghan,2005,21,Theft
Ballinamore,54.0546,-7.797000000000001,Sligo/Leitrim,2005,8,Theft
Ballinasloe,53.3284,-8.2236,Galway,2005,95,Theft
Ballincollig,51.8882,-8.5903,Cork City,2005,170,Theft
Ballindine,53.6696,-8.9577,Mayo,2005,12,Theft
Ballineen,51.7359,-8.9489,Cork West,2005,4,Theft
Ballingarry,52.4721,-8.8628,Limerick,2005,9,Theft
Ballingarry North,53.0184,-8.0305,Tipperary,2005,0,Theft
Ballingarry South,52.586000000000006,-7.541,Tipperary,2005,5,Theft
Ballinhassig,51.8041,-8.5705,Cork West,2005,19,Theft
Ballinlough,53.7408,-8.6358,Roscommon/Longford,2005,18,Theft
Ballinrobe,53.6246,-9.2262,Mayo,2005,39,Theft
Ballintra,54.5778,-8.1254,Donegal,2005,16,Theft
Ballivor,53.5327,-6.9672,Meath,2005,24,Theft
Ballon,52.7432,-6.7722,Kilkenny/Carlow,2005,19,Theft
Ballybay,54.1289,-6.9048,Cavan/Monaghan,2005,43,Theft
Ballybofey,54.7996,-7.781000000000001,Donegal,2005,107,Theft
Ballybunion,52.5113,-9.6702,Kerry,2005,46,Theft
Ballyconnell,54.119,-7.5802,Cavan/Monaghan,2005,18,Theft
Ballycotton,51.8303,-8.0131,Cork North,2005,13,Theft
Ballycroy,54.0258,-9.8259,Mayo,2005,1,Theft
Ballycullane,52.2789,-6.8392,Wexford,2005,11,Theft
Ballydehob,51.5591,-9.4608,Cork West,2005,4,Theft
Ballydesmond,52.1782,-9.231,Cork West,2005,3,Theft
Ballyduff,52.4559,-9.6631,Kerry,2005,6,Theft
Ballyfermot,53.3448,-6.358,D.M.R. Western,2005,575,Theft
Ballygar,53.5219,-8.3284,Galway,2005,12,Theft
Ballyhale,52.4683,-7.2015,Kilkenny/Carlow,2005,17,Theft
Ballyhaunis,53.763999999999996,-8.7674,Mayo,2005,62,Theft
Ballyheigue,52.3892,-9.8275,Kerry,2005,6,Theft
Ballyjamesduff,53.8631,-7.2088,Cavan/Monaghan,2005,37,Theft
Ballylanders,52.3707,-8.3455,Limerick,2005,16,Theft
Ballylinan,52.943000000000005,-7.0432,Laois/Offaly,2005,23,Theft
Ballymacarberry,52.2672,-7.7177,Waterford,2005,3,Theft
Ballymahon,53.5613,-7.7608,Roscommon/Longford,2005,21,Theft
Ballymore,53.4911,-7.6817,Westmeath,2005,11,Theft
Ballymote,54.0874,-8.5152,Sligo/Leitrim,2005,20,Theft
Ballymun,53.3945,-6.2637,D.M.R. Northern,2005,462,Theft
Ballynacargy,53.5863,-7.5349,Westmeath,2005,15,Theft
Ballyneety,52.5973,-8.5489,Limerick,2005,39,Theft
Ballynoe,52.0602,-8.0993,Cork North,2005,7,Theft
Ballyporeen,52.2702,-8.0977,Tipperary,2005,7,Theft
Ballyshannon,54.4987,-8.2048,Donegal,2005,46,Theft
Ballyvaughan,53.1162,-9.1471,Clare,2005,9,Theft
Baltimore,51.4835,-9.3723,Cork West,2005,6,Theft
Baltinglass,52.93899999999999,-6.7098,Wicklow,2005,77,Theft
Banagher,53.1905,-7.9859,Laois/Offaly,2005,21,Theft
Bandon,51.7451,-8.7399,Cork West,2005,114,Theft
Bangor Erris,54.144,-9.7471,Mayo,2005,11,Theft
Bansha,52.4493,-8.0656,Tipperary,2005,7,Theft
Bantry,51.6803,-9.4552,Cork West,2005,57,Theft
Barnaderg,53.4805,-8.7225,Galway,2005,6,Theft
Barraduff,52.0598,-9.3409,Kerry,2005,1,Theft
Beal an Mhuirthead,54.2217,-9.9856,Mayo,2005,28,Theft
Beal Atha an Ghaorthaidh,51.8519,-9.229,Cork West,2005,5,Theft
Belturbet,54.1012,-7.4426,Cavan/Monaghan,2005,17,Theft
Bennettsbridge,52.5903,-7.1832,Kilkenny/Carlow,2005,12,Theft
Birr,53.096000000000004,-7.9115,Laois/Offaly,2005,109,Theft
Bishopstown,51.8807,-8.5146,Cork City,2005,391,Theft
Blacklion,54.2915,-7.8762,Cavan/Monaghan,2005,6,Theft
Blackrock Co Cork,51.8943,-8.4045,Cork North,2005,243,Theft
Blackrock Co Dublin,53.2998,-6.1775,D.M.R. Southern,2005,561,Theft
Blackrock Co Louth,53.9638,-6.3682,Louth,2005,63,Theft
Blackwater,52.4454,-6.3488,Wexford,2005,14,Theft
Blanchardstown,53.3899,-6.381,D.M.R. Western,2005,2129,Theft
Blarney,51.931999999999995,-8.5677,Cork City,2005,174,Theft
Blessington,53.1703,-6.5337,Wicklow,2005,147,Theft
Boherbue,52.159,-9.0698,Cork West,2005,7,Theft
Bonniconlon,54.1096,-9.029,Mayo,2005,4,Theft
Borris,52.6018,-6.9293,Kilkenny/Carlow,2005,14,Theft
Borris-In-Ossory,52.9393,-7.6288,Laois/Offaly,2005,9,Theft
Borrisokane,52.9971,-8.127,Tipperary,2005,15,Theft
Borrisoleigh,52.7515,-7.9554,Tipperary,2005,13,Theft
Bothar Na Tra,53.2588,-9.0797,Galway,2005,228,Theft
Boyle,53.9734,-8.3004,Roscommon/Longford,2005,38,Theft
Bray,53.1987,-6.1006,Wicklow,2005,639,Theft
Bridewell Cork,51.9005,-8.477,Cork City,2005,493,Theft
Bridewell Dublin,53.3471,-6.2741,D.M.R. North Central,2005,965,Theft
Bruff,52.4773,-8.547,Limerick,2005,23,Theft
Bruree,52.4232,-8.6503,Limerick,2005,4,Theft
Bunclody,52.6568,-6.6625,Wexford,2005,60,Theft
Buncrana,55.1313,-7.4507,Donegal,2005,55,Theft
Bundoran,54.4766,-8.2793,Donegal,2005,29,Theft
Burnfoot,55.0547,-7.4016,Donegal,2005,72,Theft
Buttevant,52.2293,-8.6713,Cork North,2005,13,Theft
Cabinteely,53.2608,-6.1507,D.M.R. Eastern,2005,344,Theft
Cabra,53.365,-6.3076,D.M.R. Western,2005,341,Theft
Caherciveen,51.946999999999996,-10.2198,Kerry,2005,17,Theft
Caherconlish,52.5938,-8.4695,Limerick,2005,22,Theft
Cahir,52.376000000000005,-7.9203,Tipperary,2005,57,Theft
Callan,52.5424,-7.391,Kilkenny/Carlow,2005,36,Theft
Campile,52.2878,-6.9396,Wexford,2005,8,Theft
Cappamore,52.6147,-8.3385,Limerick,2005,18,Theft
Cappawhite,52.5832,-8.1648,Tipperary,2005,20,Theft
Cappoquin,52.1459,-7.8457,Waterford,2005,17,Theft
Carbury,53.3385,-6.9367,Kildare,2005,23,Theft
Carlingford,54.0412,-6.1872,Louth,2005,54,Theft
Carlow,52.8405,-6.9293,Kilkenny/Carlow,2005,605,Theft
Carna,53.3236,-9.8241,Galway,2005,4,Theft
Carndonagh,55.2535,-7.2595,Donegal,2005,41,Theft
Carnew,52.7105,-6.4918,Wicklow,2005,22,Theft
Carraig Airt,55.1751,-7.7985,Donegal,2005,18,Theft
Carrickbyrne,52.3624,-6.7597,Wexford,2005,19,Theft
Carrickmacross,53.9761,-6.7188,Cavan/Monaghan,2005,110,Theft
Carrick-on-Bannow,52.2381,-6.734,Wexford,2005,10,Theft
Carrick-On-Shannon,53.9443,-8.0902,Sligo/Leitrim,2005,103,Theft
Carrick-On-Suir,52.3482,-7.4099,Tipperary,2005,59,Theft
Carrigaline,51.8148,-8.3915,Cork City,2005,137,Theft
Carrigallen,53.9756,-7.6467,Sligo/Leitrim,2005,8,Theft
Carrigans,54.9512,-7.4268,Donegal,2005,17,Theft
Carrigtwohill,51.9095,-8.2618,Cork North,2005,47,Theft
Cashel,52.5163,-7.8903,Tipperary,2005,44,Theft
Castlebar,53.8534,-9.2976,Mayo,2005,265,Theft
Castlebellingham,53.8993,-6.3899,Louth,2005,46,Theft
Castleblayney,54.1179,-6.735,Cavan/Monaghan,2005,80,Theft
Castlebridge,52.3847,-6.4526,Wexford,2005,8,Theft
Castlecomer,52.7993,-7.2095,Kilkenny/Carlow,2005,42,Theft
Castleconnell,52.7134,-8.4985,Limerick,2005,91,Theft
Castledermot,52.9092,-6.8492,Kildare,2005,34,Theft
Castlefin,54.8027,-7.5952,Donegal,2005,11,Theft
Castlegregory,52.2542,-10.0206,Kerry,2005,6,Theft
Castleisland,52.2304,-9.4628,Kerry,2005,32,Theft
Castlemaine,52.1702,-9.7006,Kerry,2005,24,Theft
Castlepollard,53.6785,-7.2966,Westmeath,2005,36,Theft
Castlerea,53.7666,-8.4841,Roscommon/Longford,2005,67,Theft
Castletownbere,51.6495,-9.9147,Cork West,2005,27,Theft
Castletownroche,52.1707,-8.468,Cork North,2005,17,Theft
Cavan,53.9933,-7.3609,Cavan/Monaghan,2005,264,Theft
Celbridge,53.343999999999994,-6.5417,Kildare,2005,263,Theft
Charlestown,53.9627,-8.7935,Mayo,2005,32,Theft
Charleville,52.3561,-8.6826,Cork North,2005,39,Theft
Cill Ronain,53.1213,-9.6678,Galway,2005,9,Theft
Clane,53.2937,-6.6859,Kildare,2005,117,Theft
Clara,53.3454,-7.6141,Laois/Offaly,2005,44,Theft
Claremorris,53.7236,-8.9851,Mayo,2005,73,Theft
Clifden,53.4882,-10.0092,Galway,2005,38,Theft
Cloch na Ron,53.3936,-9.9211,Galway,2005,2,Theft
Cloghan,53.2248,-7.8775,Laois/Offaly,2005,17,Theft
Clogheen,52.2769,-7.9953,Tipperary,2005,7,Theft
Clogher,54.8368,-8.4275,Donegal,2005,6,Theft
Clogherhead,53.7904,-6.2427,Louth,2005,47,Theft
Clonakilty,51.6249,-8.8889,Cork West,2005,64,Theft
Clonark,53.3684,-8.0347,Roscommon/Longford,2005,12,Theft
Clonaslee,53.1486,-7.526,Laois/Offaly,2005,8,Theft
Clonbologue,53.2591,-7.0858,Laois/Offaly,2005,5,Theft
Clondalkin,53.3231,-6.395,D.M.R. Western,2005,808,Theft
Clones,54.1775,-7.2282,Cavan/Monaghan,2005,38,Theft
Clonmany,55.263000000000005,-7.4128,Donegal,2005,8,Theft
Clonmel,52.3541,-7.6999,Tipperary,2005,259,Theft
Clonroche,52.4504,-6.7159,Wexford,2005,20,Theft
Clontarf,53.3635,-6.2201,D.M.R. Northern,2005,701,Theft
Cloughjordan,52.942,-8.0397,Tipperary,2005,4,Theft
Cloyne,51.8628,-8.1235,Cork North,2005,14,Theft
Coachford,51.9091,-8.7911,Cork West,2005,11,Theft
Cobh,51.8482,-8.3036,Cork North,2005,82,Theft
Collon,53.7779,-6.4849,Louth,2005,20,Theft
Collooney,54.1855,-8.4879,Sligo/Leitrim,2005,24,Theft
Cong,53.5415,-9.2865,Mayo,2005,11,Theft
Convoy,54.8593,-7.669,Donegal,2005,29,Theft
Coolaney,54.1724,-8.6034,Sligo/Leitrim,2005,3,Theft
Coolock,53.3903,-6.2011,D.M.R. Northern,2005,824,Theft
Cootehill,54.0747,-7.0787,Cavan/Monaghan,2005,36,Theft
Corofin,52.9475,-9.0686,Clare,2005,6,Theft
Corofin,53.4376,-8.8631,Galway,2005,9,Theft
Courtown Harbour,52.6443,-6.2305,Wexford,2005,43,Theft
Craughwell,53.2294,-8.7339,Galway,2005,27,Theft
Creggs,53.5949,-8.3638,Galway,2005,1,Theft
Crookstown,51.8587,-8.8013,Cork West,2005,8,Theft
Croom,52.522,-8.7188,Limerick,2005,22,Theft
Crosshaven,51.803999999999995,-8.3045,Cork City,2005,27,Theft
Crossmolina,54.0998,-9.3227,Mayo,2005,19,Theft
Crumlin,53.3196,-6.315,D.M.R. Southern,2005,603,Theft
Crusheen,52.9385,-8.8986,Clare,2005,8,Theft
Daingean,53.293,-7.2936,Laois/Offaly,2005,13,Theft
Delvin,53.6145,-7.0901,Westmeath,2005,35,Theft
Dingle,52.1392,-10.2705,Kerry,2005,21,Theft
Dolla,52.7971,-8.1921,Tipperary,2005,5,Theft
Donegal Town,54.6524,-8.1111,Donegal,2005,57,Theft
Doneraile,52.2157,-8.5854,Cork North,2005,27,Theft
Donnybrook,53.3217,-6.2359,D.M.R. South Central,2005,724,Theft
Douglas,51.8751,-8.431000000000001,Cork City,2005,287,Theft
Dowra,54.1904,-8.0153,Cavan/Monaghan,2005,1,Theft
Drimoleague,51.659,-9.264,Cork West,2005,17,Theft
Drinagh,51.6477,-9.1545,Cork West,2005,3,Theft
Drogheda,53.7151,-6.3566,Louth,2005,693,Theft
Drumad,54.0957,-6.3608,Louth,2005,59,Theft
Drumcollogher,52.3382,-8.9113,Limerick,2005,15,Theft
Drumlish,53.8217,-7.7659,Roscommon/Longford,2005,11,Theft
Drumshambo,54.0465,-8.04,Sligo/Leitrim,2005,37,Theft
Dublin Airport,53.4299,-6.2455,D.M.R. Northern,2005,236,Theft
Duleek,53.6539,-6.4181,Meath,2005,62,Theft
Dun Fionnachaid,55.1829,-7.9744,Donegal,2005,11,Theft
Dun Laoghaire,53.2899,-6.1333,D.M.R. Eastern,2005,766,Theft
Dunboyne,53.4211,-6.4771,Meath,2005,122,Theft
Duncannon,52.2214,-6.9298,Wexford,2005,17,Theft
Dundalk,53.9995,-6.4097,Louth,2005,747,Theft
Dundrum,53.2895,-6.2426,D.M.R. Eastern,2005,951,Theft
Dungarvan,52.0877,-7.6245,Waterford,2005,208,Theft
Dunlavin,53.0588,-6.7011,Wicklow,2005,26,Theft
Dunleer,53.8285,-6.3946,Louth,2005,40,Theft
Dunmanway,51.7228,-9.1101,Cork West,2005,41,Theft
Dunmore East,52.1484,-6.9929,Waterford,2005,25,Theft
Dunmore,53.6176,-8.7406,Galway,2005,11,Theft
Dunshaughlin,53.5108,-6.5393,Meath,2005,125,Theft
Durrow,52.8443,-7.3961,Laois/Offaly,2005,32,Theft
Durrus,51.6205,-9.524,Cork West,2005,5,Theft
Edenderry,53.3368,-7.0608,Laois/Offaly,2005,86,Theft
Edgeworthstown,53.6956,-7.606,Roscommon/Longford,2005,38,Theft
Elphin,53.8458,-8.1925,Roscommon/Longford,2005,11,Theft
Emly,52.4651,-8.3542,Tipperary,2005,4,Theft
Emyvale,54.3394,-6.9576,Cavan/Monaghan,2005,44,Theft
Enfield,53.4151,-6.8339,Meath,2005,119,Theft
Ennis,52.8469,-8.9811,Clare,2005,376,Theft
Enniscorthy,52.5007,-6.5707,Wexford,2005,160,Theft
Enniscrone,54.2138,-9.0885,Sligo/Leitrim,2005,19,Theft
Enniskerry,53.1913,-6.1695,Wicklow,2005,75,Theft
Ennistymon,52.9374,-9.2885,Clare,2005,108,Theft
Eyrecourt,53.1994,-8.1324,Galway,2005,6,Theft
Farranfore,52.1714,-9.5497,Kerry,2005,8,Theft
Ferbane,53.2708,-7.8276,Laois/Offaly,2005,31,Theft
Fermoy,52.1385,-8.2742,Cork North,2005,85,Theft
Ferns,52.591,-6.4978,Wexford,2005,33,Theft
Ferrybank,52.2675,-7.1011,Waterford,2005,34,Theft
Fethard,52.4664,-7.6944,Tipperary,2005,27,Theft
Finglas,53.3896,-6.3068,D.M.R. Western,2005,845,Theft
Fitzgibbon Street,53.3577,-6.2554,D.M.R. North Central,2005,860,Theft
Foxford,53.9833,-9.1084,Mayo,2005,19,Theft
Foynes,52.6097,-9.1037,Limerick,2005,11,Theft
Frenchpark,53.8692,-8.4056,Roscommon/Longford,2005,18,Theft
Freshford,52.7324,-7.3944,Kilkenny/Carlow,2005,9,Theft
Gaillimh,53.2713,-9.0583,Galway,2005,1678,Theft
Garristown,53.5671,-6.3839,D.M.R. Northern,2005,17,Theft
Glanmire,51.9184,-8.3968,Cork City,2005,173,Theft
Glantaine,52.1047,-8.7488,Cork North,2005,11,Theft
Glasson,53.4717,-7.8635,Westmeath,2005,25,Theft
Gleann na Muaidhe,54.2408,-9.6788,Mayo,2005,3,Theft
Glenamaddy,53.6074,-8.5602,Galway,2005,7,Theft
Glenbeigh,52.0571,-9.9371,Kerry,2005,6,Theft
Glengarriff,51.7506,-9.5507,Cork West,2005,11,Theft
Glenmore,52.3538,-7.028,Kilkenny/Carlow,2005,7,Theft
Glin,52.5696,-9.2845,Limerick,2005,8,Theft
Glynn,52.3728,-6.5829,Wexford,2005,2,Theft
Gob an Choire,53.9337,-9.9185,Mayo,2005,1,Theft
Golden,52.4968,-7.9847,Tipperary,2005,4,Theft
Goresbridge,52.63,-6.9944,Kilkenny/Carlow,2005,9,Theft
Gorey,52.675,-6.2973,Wexford,2005,202,Theft
Gort,53.0674,-8.8182,Galway,2005,50,Theft
Graiguenamanagh,52.5425,-6.9568,Kilkenny/Carlow,2005,19,Theft
Granard,53.7786,-7.4942,Roscommon/Longford,2005,41,Theft
Grange,54.3934,-8.5207,Sligo/Leitrim,2005,26,Theft
Greystones,53.148,-6.0632,Wicklow,2005,275,Theft
Gurranabraher,51.9034,-8.4966,Cork City,2005,367,Theft
Gurteen,53.993,-8.5158,Sligo/Leitrim,2005,8,Theft
Hackballscross,54.0316,-6.5242,Louth,2005,14,Theft
Hacketstown,52.8643,-6.557,Kilkenny/Carlow,2005,11,Theft
Headford,53.4703,-9.0983,Galway,2005,7,Theft
Henry Street,52.6617,-8.6316,Limerick,2005,1909,Theft
Holycross,52.6426,-7.8729,Tipperary,2005,6,Theft
Hospital Co Limerick,52.4752,-8.4325,Limerick,2005,23,Theft
Howth,53.3873,-6.069,D.M.R. Northern,2005,311,Theft
Indreabhan,53.2406,-9.4296,Galway,2005,5,Theft
Innishannon,51.7644,-8.6554,Cork West,2005,8,Theft
Irishtown,53.3382,-6.2233,D.M.R. South Central,2005,555,Theft
Kanturk,52.1759,-8.9126,Cork West,2005,49,Theft
Keadue,54.0506,-8.1373,Roscommon/Longford,2005,5,Theft
Kealkil,51.755,-9.3753,Cork West,2005,7,Theft
Keel,53.9754,-10.0822,Mayo,2005,3,Theft
Kells Ceanannus Mor,53.7284,-6.8812,Meath,2005,139,Theft
Kenagh,53.622,-7.8151,Roscommon/Longford,2005,6,Theft
Kenmare,51.8785,-9.5816,Kerry,2005,68,Theft
Kerrykeel,55.1371,-7.6663,Donegal,2005,8,Theft
Kevin Street,53.339,-6.2702,D.M.R. South Central,2005,854,Theft
Kilbeggan,53.3685,-7.4992,Westmeath,2005,36,Theft
Kilbrittain,51.6735,-8.6901,Cork West,2005,4,Theft
Kilcock,53.4038,-6.6725,Kildare,2005,81,Theft
Kilconnell,53.3314,-8.4017,Galway,2005,5,Theft
Kilcormac,53.1762,-7.7288,Laois/Offaly,2005,18,Theft
Kilcullen,53.1291,-6.7466,Kildare,2005,62,Theft
Kildare,53.156000000000006,-6.9073,Kildare,2005,130,Theft
Kildorrery,52.2454,-8.4296,Cork North,2005,15,Theft
Kildysart,52.6746,-9.1058,Clare,2005,8,Theft
Kilkee,52.6824,-9.6447,Clare,2005,31,Theft
Kilkelly,53.8734,-8.8434,Mayo,2005,4,Theft
Kilkenny,52.6524,-7.2597,Kilkenny/Carlow,2005,666,Theft
Kill Co Waterford,52.1773,-7.3351,Waterford,2005,13,Theft
Killala,54.2141,-9.2205,Mayo,2005,6,Theft
Killaloe,52.8067,-8.4437,Clare,2005,82,Theft
Killarney,52.0624,-9.5124,Kerry,2005,245,Theft
Killeagh,51.9398,-7.995,Cork North,2005,25,Theft
Killenaule,52.5685,-7.6728,Tipperary,2005,33,Theft
Killeshandra,54.0118,-7.5259,Cavan/Monaghan,2005,6,Theft
Killimor,53.1659,-8.2942,Galway,2005,13,Theft
Killorglin,52.1065,-9.7871,Kerry,2005,31,Theft
Killucan,53.5147,-7.1397,Westmeath,2005,36,Theft
Kilmacow,52.3146,-7.1748,Kilkenny/Carlow,2005,6,Theft
Kilmacrennan,55.0295,-7.7785,Donegal,2005,20,Theft
Kilmacthomas,52.2062,-7.4213,Waterford,2005,17,Theft
Kilmaine,53.5826,-9.1238,Mayo,2005,1,Theft
Kilmainham,53.3419,-6.3043,D.M.R. South Central,2005,761,Theft
Kilmallock,52.3984,-8.5758,Limerick,2005,33,Theft
Kilmeaden,52.2462,-7.245,Waterford,2005,18,Theft
Kilmoganny,52.4609,-7.3293,Kilkenny/Carlow,2005,3,Theft
Kilmore Quay,52.1787,-6.5837,Wexford,2005,22,Theft
Kilnaleck,53.8585,-7.3179,Cavan/Monaghan,2005,17,Theft
Kilrickle,53.2302,-8.4524,Galway,2005,12,Theft
Kilrush,52.6411,-9.4811,Clare,2005,37,Theft
Kilsheelan,52.3615,-7.5798,Tipperary,2005,8,Theft
Kiltimagh,53.8461,-9.0058,Mayo,2005,31,Theft
Kiltormer,53.2376,-8.2713,Galway,2005,2,Theft
Kilworth,52.1763,-8.2496,Cork North,2005,8,Theft
Kingscourt,53.9043,-6.8068,Cavan/Monaghan,2005,39,Theft
Kinlough,54.4458,-8.287,Sligo/Leitrim,2005,20,Theft
Kinnegad,53.4559,-7.1028,Westmeath,2005,92,Theft
Kinnitty,53.0984,-7.7221,Laois/Offaly,2005,7,Theft
Kinsale,51.7063,-8.5255,Cork West,2005,89,Theft
Kinvara,53.1405,-8.9397,Galway,2005,4,Theft
Knock,53.7954,-8.9188,Mayo,2005,15,Theft
Knocknagoshel,52.3307,-9.3853,Kerry,2005,9,Theft
Lanesboro,53.67100000000001,-7.9853,Roscommon/Longford,2005,12,Theft
Laytown,53.6892,-6.244,Meath,2005,156,Theft
Leach Seoirse,53.3571,-8.9313,Galway,2005,25,Theft
Leamybrien,52.1693,-7.5216,Waterford,2005,20,Theft
Leitir Mor,53.2943,-9.6551,Galway,2005,2,Theft
Leixlip,53.3674,-6.4982,Kildare,2005,161,Theft
Letterfrack,53.5542,-9.9477,Galway,2005,10,Theft
Letterkenny,54.9547,-7.7364,Donegal,2005,422,Theft
Lifford,54.8328,-7.4803,Donegal,2005,24,Theft
Liscarroll,52.2596,-8.8063,Cork North,2005,11,Theft
Lisdoonvarna,53.0286,-9.2897,Clare,2005,26,Theft
Lismore,52.1367,-7.9355,Waterford,2005,18,Theft
Lissycasey,52.7461,-9.1544,Clare,2005,4,Theft
Listowel,52.4471,-9.4839,Kerry,2005,67,Theft
Littleton,52.6407,-7.7349,Tipperary,2005,18,Theft
Lixnaw,52.4041,-9.6166,Kerry,2005,7,Theft
Longford,53.7325,-7.8014,Roscommon/Longford,2005,262,Theft
Longwood,53.4546,-6.9270000000000005,Meath,2005,15,Theft
Lorrha,53.0937,-8.1221,Tipperary,2005,10,Theft
Loughrea,53.1974,-8.5699,Galway,2005,106,Theft
Louisburgh,53.7646,-9.8076,Mayo,2005,7,Theft
Louth,53.9524,-6.5379,Louth,2005,8,Theft
Lucan,53.3561,-6.4507,D.M.R. Western,2005,676,Theft
Lusk,53.5234,-6.1673,D.M.R. Northern,2005,139,Theft
Macroom,51.9063,-8.964,Cork West,2005,97,Theft
Maigh Cuilinn,53.3383,-9.1812,Galway,2005,12,Theft
Malahide,53.4512,-6.1519,D.M.R. Northern,2005,440,Theft
Mallow,52.1388,-8.6459,Cork North,2005,132,Theft
Manorhamilton,54.3044,-8.1785,Sligo/Leitrim,2005,39,Theft
Mayfield,51.9097,-8.429,Cork City,2005,176,Theft
Maynooth,53.3808,-6.5927,Kildare,2005,258,Theft
Mayorstone Park,52.6737,-8.6448,Limerick,2005,692,Theft
Midleton,51.9167,-8.1735,Cork North,2005,160,Theft
Milford Co Cork,52.3425,-8.8564,Cork North,2005,4,Theft
Milford,55.086999999999996,-7.6982,Donegal,2005,15,Theft
Millstreet Co. Cork,52.0601,-9.0615,Cork West,2005,21,Theft
Milltown,53.6116,-8.8975,Galway,2005,3,Theft
Miltown Malbay,52.8575,-9.4006,Clare,2005,46,Theft
Mitchelstown,52.2636,-8.2706,Cork North,2005,55,Theft
Moate,53.3957,-7.7345,Westmeath,2005,64,Theft
Mohill,53.9208,-7.8681,Sligo/Leitrim,2005,33,Theft
Monaghan,54.2514,-6.9675,Cavan/Monaghan,2005,203,Theft
Monasterevin,53.1382,-7.0547,Kildare,2005,46,Theft
Moneygall,52.8813,-7.9534,Tipperary,2005,4,Theft
Monivea,53.373999999999995,-8.7023,Galway,2005,4,Theft
Mooncoin,52.292,-7.2516,Kilkenny/Carlow,2005,3,Theft
Mountbellew,53.4712,-8.5001,Galway,2005,16,Theft
Mountcharles,54.6459,-8.1957,Donegal,2005,6,Theft
Mountjoy,53.3605,-6.2668,D.M.R. North Central,2005,819,Theft
Mountmellick,53.1188,-7.3351,Laois/Offaly,2005,40,Theft
Mountrath,52.9982,-7.4781,Laois/Offaly,2005,25,Theft
Moville,55.1916,-7.0286,Donegal,2005,27,Theft
Moylough,53.4877,-8.567,Galway,2005,8,Theft
Moyne,52.7343,-7.7141,Tipperary,2005,10,Theft
Muff,55.0686,-7.2688,Donegal,2005,31,Theft
Muine Bheag,52.7013,-6.9574,Kilkenny/Carlow,2005,30,Theft
Mullagh,53.8111,-6.9432,Cavan/Monaghan,2005,23,Theft
Mullinahone,52.5102,-7.5056,Tipperary,2005,8,Theft
Mullinavat,52.3664,-7.1721,Kilkenny/Carlow,2005,9,Theft
Mullingar,53.5257,-7.346,Westmeath,2005,435,Theft
Multyfarnham,53.6242,-7.3923,Westmeath,2005,21,Theft
Murroe,52.6497,-8.3992,Limerick,2005,16,Theft
Myshall,52.6875,-6.7784,Kilkenny/Carlow,2005,4,Theft
Na Cealla Beaga,54.6366,-8.4444,Donegal,2005,13,Theft
Na Gleannta,54.7955,-8.281,Donegal,2005,15,Theft
Naas,53.2107,-6.666,Kildare,2005,683,Theft
Navan,53.6545,-6.6904,Meath,2005,442,Theft
Nenagh,52.8643,-8.1996,Tipperary,2005,118,Theft
New Ross,52.3876,-6.9508,Wexford,2005,124,Theft
Newbridge,53.1814,-6.7955,Kildare,2005,297,Theft
Newcastle West,52.4537,-9.0624,Limerick,2005,105,Theft
Newmarket,52.2146,-8.997,Cork West,2005,24,Theft
Newmarket on Fergus,52.7632,-8.8991,Clare,2005,15,Theft
Newport Co Mayo,53.8902,-9.5467,Mayo,2005,11,Theft
Newport Co Tipperary,52.7107,-8.4063,Tipperary,2005,28,Theft
Newtowncunningham,54.9976,-7.5078,Donegal,2005,26,Theft
Newtownmountkennedy,53.0969,-6.1094,Wicklow,2005,46,Theft
Nobber,53.821000000000005,-6.7466,Meath,2005,15,Theft
Oldcastle,53.7693,-7.1619,Meath,2005,36,Theft
Omeath,54.0865,-6.2563,Louth,2005,59,Theft
Oola,52.53,-8.2597,Limerick,2005,7,Theft
Oughterard,53.4274,-9.3245,Galway,2005,10,Theft
Oulart,52.5033,-6.3913,Wexford,2005,12,Theft
Oylegate,52.4241,-6.5296,Wexford,2005,7,Theft
Pallasgreen,52.5687,-8.3382,Limerick,2005,18,Theft
Pallaskenry,52.6405,-8.8665,Limerick,2005,12,Theft
Partry,53.6987,-9.2796,Mayo,2005,11,Theft
Passage East,52.2392,-6.9728,Waterford,2005,10,Theft
Passage West,51.8652,-8.3317,Cork City,2005,20,Theft
Patrickswell,52.5958,-8.7129,Limerick,2005,36,Theft
Pearse Street,53.3457,-6.2563,D.M.R. South Central,2005,4191,Theft
Pettigo,54.5482,-7.8349,Donegal,2005,0,Theft
Piltown,52.3498,-7.3255,Kilkenny/Carlow,2005,5,Theft
Portarlington,53.1592,-7.1878,Laois/Offaly,2005,91,Theft
Portlaoise,53.0317,-7.3031,Laois/Offaly,2005,351,Theft
Portlaw,52.2863,-7.3176,Waterford,2005,9,Theft
Portmagee,51.8852,-10.3618,Kerry,2005,7,Theft
Portroe,52.8819,-8.3537,Tipperary,2005,7,Theft
Portumna,53.09,-8.2204,Galway,2005,18,Theft
Raheny,53.379,-6.178,D.M.R. Northern,2005,280,Theft
Ramelton,55.0367,-7.6507,Donegal,2005,6,Theft
Raphoe,54.8744,-7.5944,Donegal,2005,43,Theft
Rathangan,53.2221,-6.9975,Kildare,2005,25,Theft
Rathcoole,53.2818,-6.4647,D.M.R. Western,2005,301,Theft
Rathcormac Co Cork,52.0761,-8.2843,Cork North,2005,27,Theft
Rathdowney,52.8567,-7.5978,Laois/Offaly,2005,26,Theft
Rathdrum,52.931000000000004,-6.2265,Wicklow,2005,73,Theft
Rathfarnham,53.2974,-6.2881,D.M.R. Southern,2005,1009,Theft
Rathgormack,52.3075,-7.5038,Waterford,2005,6,Theft
Rathkeale,52.5234,-8.939,Limerick,2005,17,Theft
Rathmines,53.3213,-6.267,D.M.R. Southern,2005,698,Theft
Rathmore Co Kerry,52.0843,-9.2142,Kerry,2005,16,Theft
Rathmullen,55.0958,-7.5326,Donegal,2005,5,Theft
Rathvilly,52.8804,-6.6954,Kilkenny/Carlow,2005,7,Theft
Rhode,53.3511,-7.1948,Laois/Offaly,2005,27,Theft
Riverstown,54.1296,-8.4,Sligo/Leitrim,2005,12,Theft
Robertstown,53.2702,-6.8164,Kildare,2005,30,Theft
Rochfortbridge,53.4133,-7.3018,Westmeath,2005,41,Theft
Rockcorry,54.1202,-7.0094,Cavan/Monaghan,2005,3,Theft
Ronanstown,53.3379,-6.406000000000001,D.M.R. Western,2005,924,Theft
Roosky,53.8329,-7.9228,Roscommon/Longford,2005,14,Theft
Ros Muc,53.3864,-9.6099,Galway,2005,2,Theft
Roscommon,53.6298,-8.1936,Roscommon/Longford,2005,143,Theft
Roscrea,52.9562,-7.7988,Tipperary,2005,72,Theft
Rosscarbery,51.5776,-9.0315,Cork West,2005,12,Theft
Rosses Point,54.3054,-8.5465,Sligo/Leitrim,2005,13,Theft
Rosslare Harbour,52.2487,-6.3341,Wexford,2005,54,Theft
Rosslare Strand,52.2696,-6.3848,Wexford,2005,15,Theft
Roundwood,53.063,-6.2247,Wicklow,2005,64,Theft
Roxboro Road,52.6508,-8.615,Limerick,2005,1095,Theft
Santry,53.3897,-6.2516,D.M.R. Northern,2005,787,Theft
Scariff,52.9068,-8.5348,Clare,2005,27,Theft
Schull,51.5287,-9.5414,Cork West,2005,12,Theft
Scotstown,54.2803,-7.0636,Cavan/Monaghan,2005,10,Theft
Shankill,53.2335,-6.121,D.M.R. Eastern,2005,421,Theft
Shannon,52.7079,-8.8772,Clare,2005,138,Theft
Shercock,53.9922,-6.9008,Cavan/Monaghan,2005,14,Theft
Shevry,52.6869,-8.0471,Tipperary,2005,2,Theft
Shillelagh,52.7546,-6.5375,Wicklow,2005,19,Theft
Shinrone,52.9847,-7.9341,Laois/Offaly,2005,8,Theft
Shrule,53.5199,-9.0876,Mayo,2005,4,Theft
Sixmilebridge,52.7401,-8.7779,Clare,2005,27,Theft
Skerries,53.5796,-6.107,D.M.R. Northern,2005,83,Theft
Skibbereen,51.5486,-9.2641,Cork West,2005,56,Theft
Skreen,54.2446,-8.7204,Sligo/Leitrim,2005,2,Theft
Slane,53.7097,-6.5475,Meath,2005,41,Theft
Sligo,54.2693,-8.4713,Sligo/Leitrim,2005,577,Theft
Smear,53.8606,-7.6017,Roscommon/Longford,2005,3,Theft
Sneem,51.8389,-9.904,Kerry,2005,4,Theft
Sraith Salach,53.4653,-9.7214,Galway,2005,1,Theft
Stoneyford,52.5364,-7.2286,Kilkenny/Carlow,2005,3,Theft
Store Street,53.3505,-6.2522,D.M.R. North Central,2005,4398,Theft
Stradbally Co Laois,53.0177,-7.1516,Laois/Offaly,2005,25,Theft
Strokestown,53.7808,-8.1038,Roscommon/Longford,2005,10,Theft
Stuake,51.9905,-8.7604,Cork West,2005,2,Theft
Summerhill,53.482,-6.7334,Meath,2005,36,Theft
Sundrive Road,53.3302,-6.2987,D.M.R. Southern,2005,657,Theft
Swanlinbar,54.1961,-7.7038,Cavan/Monaghan,2005,3,Theft
Swinford,53.9406,-8.9522,Mayo,2005,38,Theft
Swords,53.456,-6.2211,D.M.R. Northern,2005,730,Theft
Taghmon,52.321999999999996,-6.6517,Wexford,2005,10,Theft
Tallaght,53.2868,-6.3678,D.M.R. Southern,2005,2280,Theft
Tallow,52.0937,-8.0073,Waterford,2005,10,Theft
Tarbert,52.5727,-9.3754,Kerry,2005,8,Theft
Tarelton,51.8385,-8.9929,Cork West,2005,3,Theft
Taughmaconnell,53.4032,-8.141,Roscommon/Longford,2005,2,Theft
Templederry,52.7741,-8.075,Tipperary,2005,1,Theft
Templemore,52.7966,-7.8351,Tipperary,2005,52,Theft
Templetuohy,52.7903,-7.7201,Tipperary,2005,4,Theft
Terenure,53.3098,-6.287999999999999,D.M.R. Southern,2005,569,Theft
Thomastown,52.528999999999996,-7.14,Kilkenny/Carlow,2005,32,Theft
Thurles,52.6757,-7.8119,Tipperary,2005,161,Theft
Timoleague,51.6427,-8.7663,Cork West,2005,7,Theft
Tinahely,52.7967,-6.4693,Wicklow,2005,21,Theft
Tipperary,52.4761,-8.1629,Tipperary,2005,86,Theft
Togher,51.8764,-8.4863,Cork City,2005,253,Theft
Toomevara,52.8497,-8.0365,Tipperary,2005,5,Theft
Tralee,52.2695,-9.7088,Kerry,2005,535,Theft
Tramore,52.1615,-7.1534,Waterford,2005,137,Theft
Trim,53.5531,-6.7893,Meath,2005,176,Theft
Tuam,53.5157,-8.8559,Galway,2005,102,Theft
Tubbercurry,54.0516,-8.7343,Sligo/Leitrim,2005,19,Theft
Tulla,52.8654,-8.7548,Clare,2005,9,Theft
Tullamore,53.2761,-7.4949,Laois/Offaly,2005,373,Theft
Tullow,52.8038,-6.7334,Kilkenny/Carlow,2005,54,Theft
Tulsk,53.7774,-8.2518,Roscommon/Longford,2005,14,Theft
Urlingford,52.7221,-7.5798,Kilkenny/Carlow,2005,37,Theft
Virginia,53.8344,-7.0819,Cavan/Monaghan,2005,26,Theft
Watercourse Road,51.9071,-8.4745,Cork City,2005,706,Theft
Waterford,52.2602,-7.1137,Waterford,2005,1246,Theft
Watergrasshill,52.0134,-8.342,Cork North,2005,14,Theft
Westport,53.7991,-9.5194,Mayo,2005,64,Theft
Wexford,52.3355,-6.462000000000001,Wexford,2005,485,Theft
Whitegate,51.8271,-8.2278,Cork North,2005,21,Theft
Wicklow,52.9814,-6.0426,Wicklow,2005,228,Theft
Williamstown,53.6771,-8.5784,Galway,2005,3,Theft
Woodford,53.0476,-8.4001,Galway,2005,2,Theft
Youghal,51.9481,-7.8428,Cork North,2005,134,Theft
Abbeyfeale,52.3873,-9.29,Limerick,2006,48,Theft
Abbeyleix,52.9127,-7.3438,Laois/Offaly,2006,46,Theft
Adare,52.5639,-8.7921,Limerick,2006,22,Theft
Aglish,52.0716,-7.8221,Waterford,2006,7,Theft
Ahascragh,53.3957,-8.3306,Galway,2006,3,Theft
Ailt an Chorrain,54.9849,-8.4386,Donegal,2006,11,Theft
An Bun Beag,55.0656,-8.2895,Donegal,2006,37,Theft
An Charraig,54.6579,-8.6331,Donegal,2006,5,Theft
An Cheathru Rua,53.2645,-9.6005,Galway,2006,4,Theft
An Clochan Liath,54.9516,-8.3613,Donegal,2006,30,Theft
An Coirean,51.8311,-10.1742,Kerry,2006,7,Theft
An Craoslach,55.1253,-7.9126,Donegal,2006,10,Theft
An Fál Carrach,55.137,-8.102,Donegal,2006,23,Theft
An Maim,53.5107,-9.5649,Galway,2006,7,Theft
An Rinn,52.0484,-7.5931,Waterford,2006,12,Theft
An Spideal,53.2454,-9.3056,Galway,2006,19,Theft
Anglesea Street,51.8958,-8.465,Cork City,2006,1427,Theft
Annascaul,52.1524,-10.0525,Kerry,2006,6,Theft
Aran Mor,53.2721,-8.9319,Galway,2006,124,Theft
Ard An Rátha,54.7645,-8.4095,Donegal,2006,9,Theft
Ardee,53.8549,-6.5411,Louth,2006,96,Theft
Ardfert,52.3235,-9.7789,Kerry,2006,16,Theft
Ardfinnan,52.3118,-7.8783,Tipperary,2006,7,Theft
Ardmore,51.951,-7.7282,Waterford,2006,20,Theft
Ardnacrusha,52.7077,-8.6131,Limerick,2006,90,Theft
Ardrahan,53.1566,-8.8065,Galway,2006,14,Theft
Arklow,52.7963,-6.1546,Wicklow,2006,256,Theft
Arles,52.891000000000005,-7.0189,Laois/Offaly,2006,21,Theft
Arva,53.9254,-7.5838,Cavan/Monaghan,2006,11,Theft
Ashbourne,53.5114,-6.397,Meath,2006,292,Theft
Ashford,53.0139,-6.1073,Wicklow,2006,126,Theft
Askeaton,52.6006,-8.9712,Limerick,2006,24,Theft
Athea,52.4599,-9.2875,Limerick,2006,4,Theft
Athenry,53.2997,-8.7497,Galway,2006,45,Theft
Athleague,53.5687,-8.2524,Roscommon/Longford,2006,8,Theft
Athlone,53.4233,-7.9447,Westmeath,2006,614,Theft
Athy,52.9902,-6.9882,Kildare,2006,129,Theft
Aughrim,52.856,-6.3268,Wicklow,2006,22,Theft
Avoca,52.8588,-6.2129,Wicklow,2006,22,Theft
Baile Atha Bui,53.6236,-6.9159,Meath,2006,59,Theft
Baile an Fheirtéaraigh,52.1659,-10.4062,Kerry,2006,4,Theft
Baile Bhuirne,51.9458,-9.1692,Cork West,2006,10,Theft
Bailieboro,53.9152,-6.9696,Cavan/Monaghan,2006,60,Theft
Balbriggan,53.6143,-6.1912,D.M.R. Northern,2006,230,Theft
Balla,53.8019,-9.1299,Mayo,2006,13,Theft
Ballaghderreen,53.8999,-8.5846,Roscommon/Longford,2006,47,Theft
Ballina,54.1129,-9.1604,Mayo,2006,186,Theft
Ballinagh,53.9311,-7.4096,Cavan/Monaghan,2006,12,Theft
Ballinamore,54.0546,-7.797000000000001,Sligo/Leitrim,2006,20,Theft
Ballinasloe,53.3284,-8.2236,Galway,2006,153,Theft
Ballincollig,51.8882,-8.5903,Cork City,2006,196,Theft
Ballindine,53.6696,-8.9577,Mayo,2006,8,Theft
Ballineen,51.7359,-8.9489,Cork West,2006,3,Theft
Ballingarry,52.4721,-8.8628,Limerick,2006,7,Theft
Ballingarry North,53.0184,-8.0305,Tipperary,2006,2,Theft
Ballingarry South,52.586000000000006,-7.541,Tipperary,2006,9,Theft
Ballinhassig,51.8041,-8.5705,Cork West,2006,39,Theft
Ballinlough,53.7408,-8.6358,Roscommon/Longford,2006,18,Theft
Ballinrobe,53.6246,-9.2262,Mayo,2006,44,Theft
Ballintra,54.5778,-8.1254,Donegal,2006,12,Theft
Ballivor,53.5327,-6.9672,Meath,2006,30,Theft
Ballon,52.7432,-6.7722,Kilkenny/Carlow,2006,22,Theft
Ballybay,54.1289,-6.9048,Cavan/Monaghan,2006,30,Theft
Ballybofey,54.7996,-7.781000000000001,Donegal,2006,91,Theft
Ballybunion,52.5113,-9.6702,Kerry,2006,43,Theft
Ballyconnell,54.119,-7.5802,Cavan/Monaghan,2006,25,Theft
Ballycotton,51.8303,-8.0131,Cork North,2006,11,Theft
Ballycroy,54.0258,-9.8259,Mayo,2006,1,Theft
Ballycullane,52.2789,-6.8392,Wexford,2006,9,Theft
Ballydehob,51.5591,-9.4608,Cork West,2006,2,Theft
Ballydesmond,52.1782,-9.231,Cork West,2006,7,Theft
Ballyduff,52.4559,-9.6631,Kerry,2006,11,Theft
Ballyfermot,53.3448,-6.358,D.M.R. Western,2006,568,Theft
Ballygar,53.5219,-8.3284,Galway,2006,8,Theft
Ballyhale,52.4683,-7.2015,Kilkenny/Carlow,2006,17,Theft
Ballyhaunis,53.763999999999996,-8.7674,Mayo,2006,50,Theft
Ballyheigue,52.3892,-9.8275,Kerry,2006,9,Theft
Ballyjamesduff,53.8631,-7.2088,Cavan/Monaghan,2006,16,Theft
Ballylanders,52.3707,-8.3455,Limerick,2006,12,Theft
Ballylinan,52.943000000000005,-7.0432,Laois/Offaly,2006,30,Theft
Ballymacarberry,52.2672,-7.7177,Waterford,2006,10,Theft
Ballymahon,53.5613,-7.7608,Roscommon/Longford,2006,31,Theft
Ballymore,53.4911,-7.6817,Westmeath,2006,2,Theft
Ballymote,54.0874,-8.5152,Sligo/Leitrim,2006,14,Theft
Ballymun,53.3945,-6.2637,D.M.R. Northern,2006,527,Theft
Ballynacargy,53.5863,-7.5349,Westmeath,2006,27,Theft
Ballyneety,52.5973,-8.5489,Limerick,2006,54,Theft
Ballynoe,52.0602,-8.0993,Cork North,2006,10,Theft
Ballyporeen,52.2702,-8.0977,Tipperary,2006,2,Theft
Ballyshannon,54.4987,-8.2048,Donegal,2006,68,Theft
Ballyvaughan,53.1162,-9.1471,Clare,2006,7,Theft
Baltimore,51.4835,-9.3723,Cork West,2006,5,Theft
Baltinglass,52.93899999999999,-6.7098,Wicklow,2006,56,Theft
Banagher,53.1905,-7.9859,Laois/Offaly,2006,21,Theft
Bandon,51.7451,-8.7399,Cork West,2006,122,Theft
Bangor Erris,54.144,-9.7471,Mayo,2006,5,Theft
Bansha,52.4493,-8.0656,Tipperary,2006,9,Theft
Bantry,51.6803,-9.4552,Cork West,2006,71,Theft
Barnaderg,53.4805,-8.7225,Galway,2006,9,Theft
Barraduff,52.0598,-9.3409,Kerry,2006,5,Theft
Beal an Mhuirthead,54.2217,-9.9856,Mayo,2006,27,Theft
Beal Atha an Ghaorthaidh,51.8519,-9.229,Cork West,2006,9,Theft
Belturbet,54.1012,-7.4426,Cavan/Monaghan,2006,44,Theft
Bennettsbridge,52.5903,-7.1832,Kilkenny/Carlow,2006,18,Theft
Birr,53.096000000000004,-7.9115,Laois/Offaly,2006,130,Theft
Bishopstown,51.8807,-8.5146,Cork City,2006,321,Theft
Blacklion,54.2915,-7.8762,Cavan/Monaghan,2006,10,Theft
Blackrock Co Cork,51.8943,-8.4045,Cork North,2006,220,Theft
Blackrock Co Dublin,53.2998,-6.1775,D.M.R. Southern,2006,547,Theft
Blackrock Co Louth,53.9638,-6.3682,Louth,2006,81,Theft
Blackwater,52.4454,-6.3488,Wexford,2006,33,Theft
Blanchardstown,53.3899,-6.381,D.M.R. Western,2006,1980,Theft
Blarney,51.931999999999995,-8.5677,Cork City,2006,168,Theft
Blessington,53.1703,-6.5337,Wicklow,2006,123,Theft
Boherbue,52.159,-9.0698,Cork West,2006,10,Theft
Bonniconlon,54.1096,-9.029,Mayo,2006,26,Theft
Borris,52.6018,-6.9293,Kilkenny/Carlow,2006,10,Theft
Borris-In-Ossory,52.9393,-7.6288,Laois/Offaly,2006,25,Theft
Borrisokane,52.9971,-8.127,Tipperary,2006,22,Theft
Borrisoleigh,52.7515,-7.9554,Tipperary,2006,13,Theft
Bothar Na Tra,53.2588,-9.0797,Galway,2006,277,Theft
Boyle,53.9734,-8.3004,Roscommon/Longford,2006,48,Theft
Bray,53.1987,-6.1006,Wicklow,2006,617,Theft
Bridewell Cork,51.9005,-8.477,Cork City,2006,412,Theft
Bridewell Dublin,53.3471,-6.2741,D.M.R. North Central,2006,947,Theft
Bruff,52.4773,-8.547,Limerick,2006,37,Theft
Bruree,52.4232,-8.6503,Limerick,2006,18,Theft
Bunclody,52.6568,-6.6625,Wexford,2006,74,Theft
Buncrana,55.1313,-7.4507,Donegal,2006,70,Theft
Bundoran,54.4766,-8.2793,Donegal,2006,29,Theft
Burnfoot,55.0547,-7.4016,Donegal,2006,60,Theft
Buttevant,52.2293,-8.6713,Cork North,2006,24,Theft
Cabinteely,53.2608,-6.1507,D.M.R. Eastern,2006,374,Theft
Cabra,53.365,-6.3076,D.M.R. Western,2006,330,Theft
Caherciveen,51.946999999999996,-10.2198,Kerry,2006,17,Theft
Caherconlish,52.5938,-8.4695,Limerick,2006,32,Theft
Cahir,52.376000000000005,-7.9203,Tipperary,2006,77,Theft
Callan,52.5424,-7.391,Kilkenny/Carlow,2006,54,Theft
Campile,52.2878,-6.9396,Wexford,2006,4,Theft
Cappamore,52.6147,-8.3385,Limerick,2006,19,Theft
Cappawhite,52.5832,-8.1648,Tipperary,2006,23,Theft
Cappoquin,52.1459,-7.8457,Waterford,2006,13,Theft
Carbury,53.3385,-6.9367,Kildare,2006,26,Theft
Carlingford,54.0412,-6.1872,Louth,2006,60,Theft
Carlow,52.8405,-6.9293,Kilkenny/Carlow,2006,689,Theft
Carna,53.3236,-9.8241,Galway,2006,13,Theft
Carndonagh,55.2535,-7.2595,Donegal,2006,29,Theft
Carnew,52.7105,-6.4918,Wicklow,2006,28,Theft
Carraig Airt,55.1751,-7.7985,Donegal,2006,12,Theft
Carrickbyrne,52.3624,-6.7597,Wexford,2006,26,Theft
Carrickmacross,53.9761,-6.7188,Cavan/Monaghan,2006,95,Theft
Carrick-on-Bannow,52.2381,-6.734,Wexford,2006,18,Theft
Carrick-On-Shannon,53.9443,-8.0902,Sligo/Leitrim,2006,121,Theft
Carrick-On-Suir,52.3482,-7.4099,Tipperary,2006,97,Theft
Carrigaline,51.8148,-8.3915,Cork City,2006,87,Theft
Carrigallen,53.9756,-7.6467,Sligo/Leitrim,2006,11,Theft
Carrigans,54.9512,-7.4268,Donegal,2006,22,Theft
Carrigtwohill,51.9095,-8.2618,Cork North,2006,41,Theft
Cashel,52.5163,-7.8903,Tipperary,2006,50,Theft
Castlebar,53.8534,-9.2976,Mayo,2006,276,Theft
Castlebellingham,53.8993,-6.3899,Louth,2006,48,Theft
Castleblayney,54.1179,-6.735,Cavan/Monaghan,2006,100,Theft
Castlebridge,52.3847,-6.4526,Wexford,2006,26,Theft
Castlecomer,52.7993,-7.2095,Kilkenny/Carlow,2006,73,Theft
Castleconnell,52.7134,-8.4985,Limerick,2006,87,Theft
Castledermot,52.9092,-6.8492,Kildare,2006,38,Theft
Castlefin,54.8027,-7.5952,Donegal,2006,18,Theft
Castlegregory,52.2542,-10.0206,Kerry,2006,4,Theft
Castleisland,52.2304,-9.4628,Kerry,2006,39,Theft
Castlemaine,52.1702,-9.7006,Kerry,2006,5,Theft
Castlepollard,53.6785,-7.2966,Westmeath,2006,40,Theft
Castlerea,53.7666,-8.4841,Roscommon/Longford,2006,62,Theft
Castletownbere,51.6495,-9.9147,Cork West,2006,32,Theft
Castletownroche,52.1707,-8.468,Cork North,2006,26,Theft
Cavan,53.9933,-7.3609,Cavan/Monaghan,2006,249,Theft
Celbridge,53.343999999999994,-6.5417,Kildare,2006,231,Theft
Charlestown,53.9627,-8.7935,Mayo,2006,61,Theft
Charleville,52.3561,-8.6826,Cork North,2006,53,Theft
Cill Ronain,53.1213,-9.6678,Galway,2006,2,Theft
Clane,53.2937,-6.6859,Kildare,2006,177,Theft
Clara,53.3454,-7.6141,Laois/Offaly,2006,35,Theft
Claremorris,53.7236,-8.9851,Mayo,2006,72,Theft
Clifden,53.4882,-10.0092,Galway,2006,33,Theft
Cloch na Ron,53.3936,-9.9211,Galway,2006,2,Theft
Cloghan,53.2248,-7.8775,Laois/Offaly,2006,14,Theft
Clogheen,52.2769,-7.9953,Tipperary,2006,5,Theft
Clogher,54.8368,-8.4275,Donegal,2006,4,Theft
Clogherhead,53.7904,-6.2427,Louth,2006,25,Theft
Clonakilty,51.6249,-8.8889,Cork West,2006,72,Theft
Clonark,53.3684,-8.0347,Roscommon/Longford,2006,9,Theft
Clonaslee,53.1486,-7.526,Laois/Offaly,2006,5,Theft
Clonbologue,53.2591,-7.0858,Laois/Offaly,2006,12,Theft
Clondalkin,53.3231,-6.395,D.M.R. Western,2006,882,Theft
Clones,54.1775,-7.2282,Cavan/Monaghan,2006,37,Theft
Clonmany,55.263000000000005,-7.4128,Donegal,2006,13,Theft
Clonmel,52.3541,-7.6999,Tipperary,2006,278,Theft
Clonroche,52.4504,-6.7159,Wexford,2006,11,Theft
Clontarf,53.3635,-6.2201,D.M.R. Northern,2006,676,Theft
Cloughjordan,52.942,-8.0397,Tipperary,2006,2,Theft
Cloyne,51.8628,-8.1235,Cork North,2006,10,Theft
Coachford,51.9091,-8.7911,Cork West,2006,10,Theft
Cobh,51.8482,-8.3036,Cork North,2006,82,Theft
Collon,53.7779,-6.4849,Louth,2006,20,Theft
Collooney,54.1855,-8.4879,Sligo/Leitrim,2006,27,Theft
Cong,53.5415,-9.2865,Mayo,2006,5,Theft
Convoy,54.8593,-7.669,Donegal,2006,35,Theft
Coolaney,54.1724,-8.6034,Sligo/Leitrim,2006,5,Theft
Coolock,53.3903,-6.2011,D.M.R. Northern,2006,896,Theft
Cootehill,54.0747,-7.0787,Cavan/Monaghan,2006,32,Theft
Corofin,52.9475,-9.0686,Clare,2006,15,Theft
Corofin,53.4376,-8.8631,Galway,2006,8,Theft
Courtown Harbour,52.6443,-6.2305,Wexford,2006,70,Theft
Craughwell,53.2294,-8.7339,Galway,2006,45,Theft
Creggs,53.5949,-8.3638,Galway,2006,1,Theft
Crookstown,51.8587,-8.8013,Cork West,2006,25,Theft
Croom,52.522,-8.7188,Limerick,2006,23,Theft
Crosshaven,51.803999999999995,-8.3045,Cork City,2006,27,Theft
Crossmolina,54.0998,-9.3227,Mayo,2006,20,Theft
Crumlin,53.3196,-6.315,D.M.R. Southern,2006,560,Theft
Crusheen,52.9385,-8.8986,Clare,2006,5,Theft
Daingean,53.293,-7.2936,Laois/Offaly,2006,22,Theft
Delvin,53.6145,-7.0901,Westmeath,2006,31,Theft
Dingle,52.1392,-10.2705,Kerry,2006,20,Theft
Dolla,52.7971,-8.1921,Tipperary,2006,4,Theft
Donegal Town,54.6524,-8.1111,Donegal,2006,55,Theft
Doneraile,52.2157,-8.5854,Cork North,2006,17,Theft
Donnybrook,53.3217,-6.2359,D.M.R. South Central,2006,656,Theft
Douglas,51.8751,-8.431000000000001,Cork City,2006,220,Theft
Dowra,54.1904,-8.0153,Cavan/Monaghan,2006,1,Theft
Drimoleague,51.659,-9.264,Cork West,2006,15,Theft
Drinagh,51.6477,-9.1545,Cork West,2006,2,Theft
Drogheda,53.7151,-6.3566,Louth,2006,589,Theft
Drumad,54.0957,-6.3608,Louth,2006,57,Theft
Drumcollogher,52.3382,-8.9113,Limerick,2006,11,Theft
Drumlish,53.8217,-7.7659,Roscommon/Longford,2006,4,Theft
Drumshambo,54.0465,-8.04,Sligo/Leitrim,2006,17,Theft
Dublin Airport,53.4299,-6.2455,D.M.R. Northern,2006,190,Theft
Duleek,53.6539,-6.4181,Meath,2006,61,Theft
Dun Fionnachaid,55.1829,-7.9744,Donegal,2006,9,Theft
Dun Laoghaire,53.2899,-6.1333,D.M.R. Eastern,2006,779,Theft
Dunboyne,53.4211,-6.4771,Meath,2006,174,Theft
Duncannon,52.2214,-6.9298,Wexford,2006,26,Theft
Dundalk,53.9995,-6.4097,Louth,2006,917,Theft
Dundrum,53.2895,-6.2426,D.M.R. Eastern,2006,1025,Theft
Dungarvan,52.0877,-7.6245,Waterford,2006,249,Theft
Dunlavin,53.0588,-6.7011,Wicklow,2006,27,Theft
Dunleer,53.8285,-6.3946,Louth,2006,45,Theft
Dunmanway,51.7228,-9.1101,Cork West,2006,60,Theft
Dunmore East,52.1484,-6.9929,Waterford,2006,30,Theft
Dunmore,53.6176,-8.7406,Galway,2006,8,Theft
Dunshaughlin,53.5108,-6.5393,Meath,2006,86,Theft
Durrow,52.8443,-7.3961,Laois/Offaly,2006,24,Theft
Durrus,51.6205,-9.524,Cork West,2006,6,Theft
Edenderry,53.3368,-7.0608,Laois/Offaly,2006,111,Theft
Edgeworthstown,53.6956,-7.606,Roscommon/Longford,2006,47,Theft
Elphin,53.8458,-8.1925,Roscommon/Longford,2006,13,Theft
Emly,52.4651,-8.3542,Tipperary,2006,1,Theft
Emyvale,54.3394,-6.9576,Cavan/Monaghan,2006,40,Theft
Enfield,53.4151,-6.8339,Meath,2006,110,Theft
Ennis,52.8469,-8.9811,Clare,2006,535,Theft
Enniscorthy,52.5007,-6.5707,Wexford,2006,199,Theft
Enniscrone,54.2138,-9.0885,Sligo/Leitrim,2006,34,Theft
Enniskerry,53.1913,-6.1695,Wicklow,2006,73,Theft
Ennistymon,52.9374,-9.2885,Clare,2006,41,Theft
Eyrecourt,53.1994,-8.1324,Galway,2006,6,Theft
Farranfore,52.1714,-9.5497,Kerry,2006,9,Theft
Ferbane,53.2708,-7.8276,Laois/Offaly,2006,21,Theft
Fermoy,52.1385,-8.2742,Cork North,2006,100,Theft
Ferns,52.591,-6.4978,Wexford,2006,22,Theft
Ferrybank,52.2675,-7.1011,Waterford,2006,35,Theft
